{
"type": "FeatureCollection",
"name": "TRAILHEADS_TEST_FOR_SITE",
"crs": { "type": "name", "properties": { "name": "urn:ogc:def:crs:OGC:1.3:CRS84" } },
"features": [
{ "type": "Feature", "properties": { "id": null, "Name": "Loudoun Heights", "Park": "Appalachian Trail", "All_Trails": "https://www.alltrails.com/trail/us/west-virginia/loudoun-heights-trail-to-split-rock", "Goolge": "https://maps.app.goo.gl/cXmPGhiGjPRbqgGM7", "Difficulty": "Hard", "Length": "5.9mi", "Elevation": 1446, "Type": "Hike", "All_Trail2": null }, "geometry": { "type": "Point", "coordinates": [ -77.739271769602695, 39.318967427791321 ] } },
{ "type": "Feature", "properties": { "id": null, "Name": "Sweet Run State Park", "Park": "Sweet Run State Park", "All_Trails": "https://www.alltrails.com/explore/parks/us/virginia/sweet-run-state-park", "Goolge": "https://maps.app.goo.gl/HG73wGazvmr5bY6PA", "Difficulty": "Variable", "Length": "Variable", "Elevation": null, "Type": "All", "All_Trail2": null }, "geometry": { "type": "Point", "coordinates": [ -77.726058683672079, 39.293103759153894 ] } },
{ "type": "Feature", "properties": { "id": null, "Name": "Keys Gap to Harpers Ferry via Appalachian Trail", "Park": "Appalachian Trail", "All_Trails": "https://www.alltrails.com/trail/us/west-virginia/appalachian-trail-keys-gap-to-harpers-ferry", "Goolge": "https://maps.app.goo.gl/qmw2TodP3qzhuzbi7", "Difficulty": "Hard", "Length": "13.9mi", "Elevation": 2168, "Type": "Hike", "All_Trail2": null }, "geometry": { "type": "Point", "coordinates": [ -77.762196645887173, 39.261081254198636 ] } },
{ "type": "Feature", "properties": { "id": null, "Name": "Raven Rocks via Appalachian Trail", "Park": "Raven Rocks via Appalachian Trail", "All_Trails": "https://www.alltrails.com/trail/us/virginia/raven-rocks-via-appalachian-trail", "Goolge": "https://maps.app.goo.gl/GRXGWerh93xxKVMK8", "Difficulty": "Hard", "Length": "5.3mi", "Elevation": 1515, "Type": "Hike", "All_Trail2": null }, "geometry": { "type": "Point", "coordinates": [ -77.852464063735951, 39.11658967354068 ] } },
{ "type": "Feature", "properties": { "id": null, "Name": "Bear's Den Park Trail", "Park": "Bear's Den Park", "All_Trails": "https://www.alltrails.com/trail/us/virginia/bears-den-park-trail", "Goolge": "https://maps.app.goo.gl/2YUBg5rFbA5ZrhRp8", "Difficulty": "Moderate", "Length": "1.6mi", "Elevation": 285, "Type": "Hike", "All_Trail2": null }, "geometry": { "type": "Point", "coordinates": [ -77.84728960805981, 39.11536135017441 ] } },
{ "type": "Feature", "properties": { "id": null, "Name": "Bear Den Park to Buzzard Hill via Appalachian Trail", "Park": "Appalachian Trail", "All_Trails": "https://www.alltrails.com/trail/us/virginia/bear-den-park-to-buzzard-hill-via-the-appalachian-trail", "Goolge": "https://maps.app.goo.gl/75mMREwg7X1dcgi97", "Difficulty": "Hard", "Length": "9.9mi", "Elevation": 3192, "Type": "Hike", "All_Trail2": null }, "geometry": { "type": "Point", "coordinates": [ -77.850819602780632, 39.115570853926137 ] } },
{ "type": "Feature", "properties": { "id": null, "Name": "Bear's Den Park Trail", "Park": "Bear's Den Park", "All_Trails": "N/A", "Goolge": "https://maps.app.goo.gl/eAFCxrz5GtfYg5LK6", "Difficulty": "Easy", "Length": "<1m", "Elevation": null, "Type": "Walk", "All_Trail2": null }, "geometry": { "type": "Point", "coordinates": [ -77.854269239898059, 39.110582942686484 ] } },
{ "type": "Feature", "properties": { "id": null, "Name": "Dirt Farm Brewing Loop", "Park": "Dirt Farm Brewery", "All_Trails": "https://www.alltrails.com/trail/us/virginia/dirt-farm-brewing-loop", "Goolge": "https://maps.app.goo.gl/yKwGW2u5YmbroLxg8", "Difficulty": "Moderate", "Length": "3.3mi", "Elevation": 492, "Type": "Hike", "All_Trail2": null }, "geometry": { "type": "Point", "coordinates": [ -77.837428582156704, 39.099286959579828 ] } },
{ "type": "Feature", "properties": { "id": null, "Name": "Buzzard Hill via Appalachian Trail", "Park": "Appalachian Trail", "All_Trails": "https://www.alltrails.com/trail/us/virginia/buzzard-hill-via-appalachian-trail", "Goolge": "https://maps.app.goo.gl/bXNnPiEU3Dwj8nX8A", "Difficulty": "Moderate", "Length": "3.4mi", "Elevation": 728, "Type": "Hike", "All_Trail2": null }, "geometry": { "type": "Point", "coordinates": [ -77.912115234688969, 39.072011293054047 ] } },
{ "type": "Feature", "properties": { "id": null, "Name": "Ashby Gap to Whitehouse Overlook", "Park": "Sky Meadows State Park", "All_Trails": "https://www.alltrails.com/trail/us/virginia/ashby-gap-to-whitehouse-overlook-loop", "Goolge": "https://maps.app.goo.gl/FrawNHM1uKNUEtuy5", "Difficulty": "Moderate", "Length": "4.6mi", "Elevation": 948, "Type": "Hike", "All_Trail2": null }, "geometry": { "type": "Point", "coordinates": [ -77.965082374987688, 39.016736741571876 ] } },
{ "type": "Feature", "properties": { "id": null, "Name": "Myron Glaser Cabin", "Park": "Appalachian Trail", "All_Trails": "https://www.alltrails.com/trail/us/virginia/myron-glaser-cabin", "Goolge": "https://maps.app.goo.gl/FrawNHM1uKNUEtuy5", "Difficulty": "Moderate", "Length": "3.7mi", "Elevation": 616, "Type": "Hike", "All_Trail2": null }, "geometry": { "type": "Point", "coordinates": [ -77.964416554845215, 39.01673961148628 ] } },
{ "type": "Feature", "properties": { "id": null, "Name": "Lost Mountain Loop Trail", "Park": "Sky Meadows State Park", "All_Trails": "https://www.alltrails.com/trail/us/virginia/lost-mountain-loop-trail", "Goolge": "https://maps.app.goo.gl/4q75JGGsYSPvRK8n6", "Difficulty": "Moderate", "Length": "4mi", "Elevation": 567, "Type": "Hike", "All_Trail2": null }, "geometry": { "type": "Point", "coordinates": [ -77.945371802839219, 38.990247431593652 ] } },
{ "type": "Feature", "properties": { "id": null, "Name": "Sky Meadows State Park", "Park": "Sky Meadows State Park", "All_Trails": "https://www.alltrails.com/explore/parks/us/virginia/sky-meadows-state-park", "Goolge": "https://maps.app.goo.gl/jBq8vd6sbRdZbKUF6", "Difficulty": "Variable", "Length": "Variable", "Elevation": null, "Type": "All", "All_Trail2": null }, "geometry": { "type": "Point", "coordinates": [ -77.96723194087869, 38.992936541393178 ] } },
{ "type": "Feature", "properties": { "id": null, "Name": "Manassas Gap", "Park": "G. Richard Thompson Wildlife Management Area", "All_Trails": "https://www.alltrails.com/trail/us/virginia/manassas-gap", "Goolge": "https://maps.app.goo.gl/NbbxPQaAPsLvKxLi6", "Difficulty": "Moderate", "Length": "4.6mi", "Elevation": 1082, "Type": "Hike", "All_Trail2": null }, "geometry": { "type": "Point", "coordinates": [ -78.053101214898476, 38.911324785396403 ] } },
{ "type": "Feature", "properties": { "id": null, "Name": "Appalachian Trail: Petersburg to Lake Front Royal", "Park": "Appalachian Trail", "All_Trails": "https://www.alltrails.com/trail/us/virginia/appalachian-trail-petersburg-to-lake-front-royal", "Goolge": "https://maps.app.goo.gl/x4bQgqdpEgqomBYd8", "Difficulty": "Hard", "Length": "16.7mi", "Elevation": 3000, "Type": "Hike", "All_Trail2": null }, "geometry": { "type": "Point", "coordinates": [ -78.053508742744313, 38.909264186852056 ] } },
{ "type": "Feature", "properties": { "id": null, "Name": "Lake Front Royal to SNP Boundary via Appalachian Trail", "Park": "Appalachian Trail", "All_Trails": "https://www.alltrails.com/trail/us/virginia/appalachian-trail-lake-front-royal-to-snp-boundary", "Goolge": "https://maps.app.goo.gl/XXfh6AD9GLJnaeTo7", "Difficulty": "Moderate", "Length": "6.8mi", "Elevation": 1932, "Type": "Hike", "All_Trail2": null }, "geometry": { "type": "Point", "coordinates": [ -78.150665390127543, 38.877982119813858 ] } },
{ "type": "Feature", "properties": { "id": null, "Name": "Snead Farm via Dickey Ridge Trail", "Park": "Shenandoah National Park", "All_Trails": "https://www.alltrails.com/trail/us/virginia/snead-farm-via-dickey-ridge-trail-loop", "Goolge": "https://maps.app.goo.gl/DroWrAsmQtMPToY37", "Difficulty": "Moderate", "Length": "8.7mi", "Elevation": 1499, "Type": "Hike", "All_Trail2": null }, "geometry": { "type": "Point", "coordinates": [ -78.19670264377099, 38.906192421798202 ] } },
{ "type": "Feature", "properties": { "id": null, "Name": "Snead Farm via Dickey Ridge Trail", "Park": "Shenandoah National Park", "All_Trails": "https://www.alltrails.com/trail/us/virginia/snead-farm-via-dickey-ridge-trail-loop", "Goolge": "https://maps.app.goo.gl/DroWrAsmQtMPToY37", "Difficulty": "Moderate", "Length": "8.7mi", "Elevation": 1499, "Type": "Hike", "All_Trail2": null }, "geometry": { "type": "Point", "coordinates": [ -78.192133740034791, 38.901018922760223 ] } },
{ "type": "Feature", "properties": { "id": null, "Name": "Appalaichain Trail Access", "Park": "Shenandoah National Park", "All_Trails": null, "Goolge": null, "Difficulty": null, "Length": null, "Elevation": null, "Type": "Hike", "All_Trail2": null }, "geometry": { "type": "Point", "coordinates": [ -78.196327641621792, 38.894115821972839 ] } },
{ "type": "Feature", "properties": { "id": null, "Name": "Fox Hollow Trail", "Park": "Shenandoah National Park", "All_Trails": "https://www.alltrails.com/trail/us/virginia/fox-hollow-trail", "Goolge": "https://maps.app.goo.gl/7FpLGu7ufs5CuowXA", "Difficulty": "Moderate", "Length": "1.3mi", "Elevation": 229, "Type": "Hike", "All_Trail2": null }, "geometry": { "type": "Point", "coordinates": [ -78.203751153555004, 38.871841459620683 ] } },
{ "type": "Feature", "properties": { "id": null, "Name": "G. Richard Thompson Wildlife Management Area", "Park": "G. Richard Thompson Wildlife Management Area", "All_Trails": "https://www.alltrails.com/trail/us/virginia/thompson-lake-to-whiskey-hollow-shelter", "Goolge": "https://maps.app.goo.gl/VMzfdEXmJwf9ipTL8", "Difficulty": "Moderate", "Length": "7.4mi", "Elevation": 1761, "Type": null, "All_Trail2": null }, "geometry": { "type": "Point", "coordinates": [ -77.988599410278511, 38.957280724798331 ] } },
{ "type": "Feature", "properties": { "id": null, "Name": "Snead Farm Dickey Ridge Loop Trail", "Park": "Shenandoah National Park", "All_Trails": "http://alltrails.com/trail/us/virginia/snead-farm-dickey-ridge-loop-trail", "Goolge": "https://maps.app.goo.gl/L7HxYqpYmefD6gZu8", "Difficulty": "Moderate", "Length": "3.8mi", "Elevation": 751, "Type": "Hike", "All_Trail2": null }, "geometry": { "type": "Point", "coordinates": [ -78.002286988724507, 38.923086651275078 ] } },
{ "type": "Feature", "properties": { "id": null, "Name": "West Thompson WMA and AT Loop", "Park": "G. Richard Thompson Wildlife Management Area", "All_Trails": "https://www.alltrails.com/trail/us/virginia/west-thompson-wma-and-at-loop", "Goolge": "https://maps.app.goo.gl/1raDWwdiAxidiFTJ8", "Difficulty": "Easy", "Length": "2.3mi", "Elevation": 291, "Type": "Hike", "All_Trail2": null }, "geometry": { "type": "Point", "coordinates": [ -78.04110353771955, 38.93882143533142 ] } },
{ "type": "Feature", "properties": { "id": null, "Name": "Trillium Trail", "Park": "G. Richard Thompson Wildlife Management Area", "All_Trails": null, "Goolge": "https://maps.app.goo.gl/HHaw8XYLydyRQTdL7", "Difficulty": null, "Length": null, "Elevation": null, "Type": "Hike", "All_Trail2": null }, "geometry": { "type": "Point", "coordinates": [ -78.038287195047985, 38.943298501806602 ] } },
{ "type": "Feature", "properties": { "id": null, "Name": "Trail Head", "Park": "G. Richard Thompson Wildlife Management Area", "All_Trails": null, "Goolge": "https://maps.app.goo.gl/3tR17YWX77Fiyvnu6", "Difficulty": null, "Length": null, "Elevation": null, "Type": "Hike", "All_Trail2": null }, "geometry": { "type": "Point", "coordinates": [ -78.027136620938037, 38.953683765408002 ] } },
{ "type": "Feature", "properties": { "id": null, "Name": "Trail Head", "Park": "G. Richard Thompson Wildlife Management Area", "All_Trails": null, "Goolge": "https://maps.app.goo.gl/2LjLMEkF2oEDRXjR8", "Difficulty": null, "Length": null, "Elevation": null, "Type": "Hike", "All_Trail2": null }, "geometry": { "type": "Point", "coordinates": [ -78.019705455899725, 38.963372596446604 ] } },
{ "type": "Feature", "properties": { "id": null, "Name": "Trail Head", "Park": "G. Richard Thompson Wildlife Management Area", "All_Trails": null, "Goolge": "https://maps.app.goo.gl/iTVWnfGbCTJdCtot6", "Difficulty": null, "Length": null, "Elevation": null, "Type": "Hike", "All_Trail2": null }, "geometry": { "type": "Point", "coordinates": [ -77.999577789524153, 38.985474763934306 ] } },
{ "type": "Feature", "properties": { "id": null, "Name": "Snead Farm Dickey Ridge Loop Trail", "Park": "Shenandoah National Park", "All_Trails": "https://www.alltrails.com/trail/us/virginia/snead-farm-dickey-ridge-loop-trail", "Goolge": "https://maps.app.goo.gl/7WBy7CGmC8Vfi7Dm8", "Difficulty": "Moderate", "Length": "3.8mi", "Elevation": 751, "Type": "Hike", "All_Trail2": null }, "geometry": { "type": "Point", "coordinates": [ -78.202679718843214, 38.865399458414757 ] } },
{ "type": "Feature", "properties": { "id": null, "Name": "Dickey Ridge Loop Trail Crossing", "Park": "Shenandoah National Park", "All_Trails": null, "Goolge": null, "Difficulty": null, "Length": null, "Elevation": null, "Type": "Hike", "All_Trail2": null }, "geometry": { "type": "Point", "coordinates": [ -78.205036875209601, 38.849144263212558 ] } },
{ "type": "Feature", "properties": { "id": null, "Name": "Dickey Ridge Loop Trail Crossing", "Park": "Shenandoah National Park", "All_Trails": null, "Goolge": null, "Difficulty": null, "Length": null, "Elevation": null, "Type": "Hike", "All_Trail2": null }, "geometry": { "type": "Point", "coordinates": [ -78.194429671560712, 38.836164596987082 ] } },
{ "type": "Feature", "properties": { "id": null, "Name": "Lands Run Falls Trail", "Park": "Shenandoah National Park", "All_Trails": "https://www.alltrails.com/trail/us/virginia/lands-run-falls-trail", "Goolge": "https://maps.app.goo.gl/ZLZkc8rmkydv8TMSA", "Difficulty": null, "Length": null, "Elevation": 872, "Type": null, "All_Trail2": null }, "geometry": { "type": "Point", "coordinates": [ -78.185835234549373, 38.83427428003089 ] } },
{ "type": "Feature", "properties": { "id": null, "Name": "Compton Peak via Compton Gap Fire Road and Appalachian Trail", "Park": "Shenandoah National Park", "All_Trails": null, "Goolge": "https://maps.app.goo.gl/JVjYtabNXAnnadCE6", "Difficulty": "Moderate", "Length": "3.8mi", "Elevation": 872, "Type": "Hike", "All_Trail2": "https://www.alltrails.com/trail/us/virginia/compton-peak-via-compton-gap-fire-road-and-appalachian-trail" }, "geometry": { "type": "Point", "coordinates": [ -78.151664120341408, 38.849194008395671 ] } },
{ "type": "Feature", "properties": { "id": null, "Name": "Compton Peak from Jenkins Gap via Appalachian Trail", "Park": "Shenandoah National Park", "All_Trails": "https://www.alltrails.com/trail/us/virginia/compton-peak-from-jenkins-gap-via-appalachian-trail", "Goolge": "https://maps.app.goo.gl/AcHByj7GLwCXvdP49", "Difficulty": "Moderate", "Length": "3.3mi", "Elevation": 744, "Type": "Hike", "All_Trail2": null }, "geometry": { "type": "Point", "coordinates": [ -78.181140054579274, 38.807082797661138 ] } },
{ "type": "Feature", "properties": { "id": null, "Name": "Mount Marshall Road", "Park": "Shenandoah National Park", "All_Trails": null, "Goolge": null, "Difficulty": "Hard", "Length": null, "Elevation": null, "Type": "Hike", "All_Trail2": null }, "geometry": { "type": "Point", "coordinates": [ -78.179410452829885, 38.802230729036758 ] } },
{ "type": "Feature", "properties": { "id": null, "Name": "Appalaichain Trail Access", "Park": "Shenandoah National Park", "All_Trails": "https://www.alltrails.com/trail/us/virginia/mount-marshall-via-the-appalacian-trail", "Goolge": null, "Difficulty": null, "Length": null, "Elevation": null, "Type": null, "All_Trail2": null }, "geometry": { "type": "Point", "coordinates": [ -78.188425810620913, 38.790131169896163 ] } },
{ "type": "Feature", "properties": { "id": null, "Name": "South Mount Marshall Viewpoint", "Park": "Shenandoah National Park", "All_Trails": "https://www.alltrails.com/trail/us/virginia/south-mount-marshall-viewpoint", "Goolge": "https://maps.app.goo.gl/ZikLUpo21cYnMZho9", "Difficulty": "Easy", "Length": "1.7mi", "Elevation": 262, "Type": null, "All_Trail2": null }, "geometry": { "type": "Point", "coordinates": [ -78.210836015588342, 38.775076555554307 ] } },
{ "type": "Feature", "properties": { "id": null, "Name": "Jordan River Trail", "Park": "Shenandoah National Park", "All_Trails": "https://www.alltrails.com/trail/us/virginia/jordan-river-trail", "Goolge": "https://maps.app.goo.gl/Khe9SH7kHMxFiYMeA", "Difficulty": "Moderate", "Length": "2.8mi", "Elevation": 856, "Type": "Hike", "All_Trail2": null }, "geometry": { "type": "Point", "coordinates": [ -78.160826800405616, 38.772403708603122 ] } },
{ "type": "Feature", "properties": { "id": null, "Name": "Appalachian, Bluff, and Big Devil Stairs Trail", "Park": "Shenandoah National Park", "All_Trails": "https://www.alltrails.com/trail/us/virginia/big-devil-stairs-trail", "Goolge": "https://maps.app.goo.gl/TNZLxugNxnwNRhae7", "Difficulty": "Hard", "Length": "6.1mi", "Elevation": 1627, "Type": "Hike", "All_Trail2": null }, "geometry": { "type": "Point", "coordinates": [ -78.233569564245499, 38.767819498656792 ] } },
{ "type": "Feature", "properties": { "id": null, "Name": "Shenandoah Bluff Trail", "Park": "Shenandoah National Park", "All_Trails": "https://www.alltrails.com/trail/us/virginia/shenandoah-bluff-trail", "Goolge": "https://maps.app.goo.gl/TNZLxugNxnwNRhae7", "Difficulty": "Moderate", "Length": "8.1mi", "Elevation": 1184, "Type": "Hike", "All_Trail2": null }, "geometry": { "type": "Point", "coordinates": [ -78.233500686299735, 38.768114143202595 ] } },
{ "type": "Feature", "properties": { "id": null, "Name": "Little Devils Stairs Trail via Keyser Run Road", "Park": "Shenandoah National Park", "All_Trails": "https://www.alltrails.com/trail/us/virginia/little-devils-stairs-trail-via-keyser-run-road", "Goolge": "https://maps.app.goo.gl/6wZDrSRKt8kLDZqG7", "Difficulty": "Hard", "Length": "7.4mi", "Elevation": 1732, "Type": "Hike", "All_Trail2": null }, "geometry": { "type": "Point", "coordinates": [ -78.256272500482311, 38.757644695445336 ] } },
{ "type": "Feature", "properties": { "id": null, "Name": "Little Hogback Overlook via Appalachian Trail", "Park": "Shenandoah National Park", "All_Trails": "https://www.alltrails.com/trail/us/virginia/little-hogback-overlook-via-appalachian-trail", "Goolge": "https://maps.app.goo.gl/6wZDrSRKt8kLDZqG7", "Difficulty": "Easy", "Length": ".8mi", "Elevation": 154, "Type": "Hike", "All_Trail2": null }, "geometry": { "type": "Point", "coordinates": [ -78.256999545465462, 38.757216121560539 ] } },
{ "type": "Feature", "properties": { "id": null, "Name": "Little Hogback Overlook", "Park": "Shenandoah National Park", "All_Trails": null, "Goolge": "https://maps.app.goo.gl/qFDeNWn9Kvsjzw7j7", "Difficulty": "Easy", "Length": ".2mi", "Elevation": null, "Type": null, "All_Trail2": null }, "geometry": { "type": "Point", "coordinates": [ -78.262138605530524, 38.758853886048882 ] } },
{ "type": "Feature", "properties": { "id": null, "Name": "Little Devils Stairs Trail", "Park": null, "All_Trails": "https://www.alltrails.com/trail/us/virginia/little-devils-stairs-trail", "Goolge": "https://maps.app.goo.gl/AvbiR6qnTdsXoMJw6", "Difficulty": "Moderate", "Length": "5.6mi", "Elevation": 1492, "Type": null, "All_Trail2": null }, "geometry": { "type": "Point", "coordinates": [ -78.258262307804614, 38.730483825496094 ] } },
{ "type": "Feature", "properties": { "id": null, "Name": "Little Devils Stairs and Piney Branch Loop", "Park": null, "All_Trails": "https://www.alltrails.com/trail/us/virginia/little-devils-stairs-and-piney-branch-loop", "Goolge": "https://maps.app.goo.gl/AvbiR6qnTdsXoMJw6", "Difficulty": "Moderate", "Length": "7.9mi", "Elevation": 2014, "Type": null, "All_Trail2": null }, "geometry": { "type": "Point", "coordinates": [ -78.25901231210301, 38.729358819048493 ] } },
{ "type": "Feature", "properties": { "id": null, "Name": "Gravel Springs Hut via Harris Hollow Trail", "Park": "Shenandoah National Park", "All_Trails": "https://www.alltrails.com/trail/us/virginia/gravel-springs-hut-via-harris-hollow-trail", "Goolge": "https://maps.app.goo.gl/imLutRZo4nRVJRN36", "Difficulty": "Hard", "Length": "4.4mi", "Elevation": 1220, "Type": "Hike", "All_Trail2": null }, "geometry": { "type": "Point", "coordinates": [ -78.231283199101142, 38.743235811845196 ] } },
{ "type": "Feature", "properties": { "id": null, "Name": "Mount Marshall Trailhead", "Park": "Shenandoah National Park", "All_Trails": "https://www.alltrails.com/trail/us/virginia/mount-marshall-road", "Goolge": "https://maps.app.goo.gl/bLTW3K3iaGjjBbMu5", "Difficulty": "Hard", "Length": "11.2mi", "Elevation": 1899, "Type": "Hike", "All_Trail2": null }, "geometry": { "type": "Point", "coordinates": [ -78.194003010952329, 38.747762623503426 ] } },
{ "type": "Feature", "properties": { "id": null, "Name": null, "Park": null, "All_Trails": null, "Goolge": null, "Difficulty": null, "Length": null, "Elevation": null, "Type": null, "All_Trail2": null }, "geometry": { "type": "Point", "coordinates": [ -78.31026898341473, 38.850934133164131 ] } },
{ "type": "Feature", "properties": { "id": null, "Name": null, "Park": null, "All_Trails": null, "Goolge": null, "Difficulty": null, "Length": null, "Elevation": null, "Type": null, "All_Trail2": null }, "geometry": { "type": "Point", "coordinates": [ -78.311596797147104, 38.848381822618045 ] } },
{ "type": "Feature", "properties": { "id": null, "Name": null, "Park": null, "All_Trails": null, "Goolge": null, "Difficulty": null, "Length": null, "Elevation": null, "Type": null, "All_Trail2": null }, "geometry": { "type": "Point", "coordinates": [ -78.30665289126172, 38.851978782008331 ] } },
{ "type": "Feature", "properties": { "id": null, "Name": null, "Park": null, "All_Trails": null, "Goolge": null, "Difficulty": null, "Length": null, "Elevation": null, "Type": null, "All_Trail2": null }, "geometry": { "type": "Point", "coordinates": [ -78.307605702844896, 38.857986469500624 ] } },
{ "type": "Feature", "properties": { "id": null, "Name": null, "Park": null, "All_Trails": null, "Goolge": null, "Difficulty": null, "Length": null, "Elevation": null, "Type": null, "All_Trail2": null }, "geometry": { "type": "Point", "coordinates": [ -78.305298291661543, 38.862272208348642 ] } },
{ "type": "Feature", "properties": { "id": null, "Name": null, "Park": null, "All_Trails": null, "Goolge": null, "Difficulty": null, "Length": null, "Elevation": null, "Type": null, "All_Trail2": null }, "geometry": { "type": "Point", "coordinates": [ -78.310525362435101, 38.863221193379268 ] } },
{ "type": "Feature", "properties": { "id": null, "Name": null, "Park": null, "All_Trails": null, "Goolge": null, "Difficulty": null, "Length": null, "Elevation": null, "Type": null, "All_Trail2": null }, "geometry": { "type": "Point", "coordinates": [ -78.329696390674869, 38.83895702370495 ] } },
{ "type": "Feature", "properties": { "id": null, "Name": null, "Park": null, "All_Trails": null, "Goolge": null, "Difficulty": null, "Length": null, "Elevation": null, "Type": null, "All_Trail2": null }, "geometry": { "type": "Point", "coordinates": [ -78.348515376080684, 38.834342201338274 ] } },
{ "type": "Feature", "properties": { "id": null, "Name": null, "Park": null, "All_Trails": null, "Goolge": null, "Difficulty": null, "Length": null, "Elevation": null, "Type": null, "All_Trail2": null }, "geometry": { "type": "Point", "coordinates": [ -78.38495180939384, 38.794063909272062 ] } },
{ "type": "Feature", "properties": { "id": null, "Name": null, "Park": null, "All_Trails": null, "Goolge": null, "Difficulty": null, "Length": null, "Elevation": null, "Type": null, "All_Trail2": null }, "geometry": { "type": "Point", "coordinates": [ -78.327086681840612, 38.861702052019716 ] } },
{ "type": "Feature", "properties": { "id": null, "Name": null, "Park": null, "All_Trails": null, "Goolge": null, "Difficulty": null, "Length": null, "Elevation": null, "Type": null, "All_Trail2": null }, "geometry": { "type": "Point", "coordinates": [ -78.312165040199744, 38.880941001567123 ] } },
{ "type": "Feature", "properties": { "id": null, "Name": null, "Park": null, "All_Trails": null, "Goolge": null, "Difficulty": null, "Length": null, "Elevation": null, "Type": null, "All_Trail2": null }, "geometry": { "type": "Point", "coordinates": [ -78.337603961504698, 38.921364702629937 ] } },
{ "type": "Feature", "properties": { "id": null, "Name": null, "Park": null, "All_Trails": null, "Goolge": null, "Difficulty": null, "Length": null, "Elevation": null, "Type": null, "All_Trail2": null }, "geometry": { "type": "Point", "coordinates": [ -78.332193216209092, 38.924525435030347 ] } },
{ "type": "Feature", "properties": { "id": null, "Name": null, "Park": null, "All_Trails": null, "Goolge": null, "Difficulty": null, "Length": null, "Elevation": null, "Type": null, "All_Trail2": null }, "geometry": { "type": "Point", "coordinates": [ -78.329552894954517, 38.928971889085147 ] } },
{ "type": "Feature", "properties": { "id": null, "Name": null, "Park": null, "All_Trails": null, "Goolge": null, "Difficulty": null, "Length": null, "Elevation": null, "Type": null, "All_Trail2": null }, "geometry": { "type": "Point", "coordinates": [ -78.329269730066343, 38.927969332318924 ] } },
{ "type": "Feature", "properties": { "id": null, "Name": null, "Park": null, "All_Trails": null, "Goolge": null, "Difficulty": null, "Length": null, "Elevation": null, "Type": null, "All_Trail2": null }, "geometry": { "type": "Point", "coordinates": [ -78.321249275936495, 38.932285683587274 ] } },
{ "type": "Feature", "properties": { "id": null, "Name": null, "Park": null, "All_Trails": null, "Goolge": null, "Difficulty": null, "Length": null, "Elevation": null, "Type": null, "All_Trail2": null }, "geometry": { "type": "Point", "coordinates": [ -78.319975033939713, 38.935105852811368 ] } },
{ "type": "Feature", "properties": { "id": null, "Name": null, "Park": null, "All_Trails": null, "Goolge": null, "Difficulty": null, "Length": null, "Elevation": null, "Type": null, "All_Trail2": null }, "geometry": { "type": "Point", "coordinates": [ -78.288562864115306, 38.937608418174399 ] } },
{ "type": "Feature", "properties": { "id": null, "Name": null, "Park": null, "All_Trails": null, "Goolge": null, "Difficulty": null, "Length": null, "Elevation": null, "Type": null, "All_Trail2": null }, "geometry": { "type": "Point", "coordinates": [ -78.40466429481836, 38.897156017967511 ] } },
{ "type": "Feature", "properties": { "id": null, "Name": null, "Park": null, "All_Trails": null, "Goolge": null, "Difficulty": null, "Length": null, "Elevation": null, "Type": null, "All_Trail2": null }, "geometry": { "type": "Point", "coordinates": [ -78.448401790383286, 38.871619519572704 ] } },
{ "type": "Feature", "properties": { "id": null, "Name": null, "Park": null, "All_Trails": null, "Goolge": null, "Difficulty": null, "Length": null, "Elevation": null, "Type": null, "All_Trail2": null }, "geometry": { "type": "Point", "coordinates": [ -78.444561844906517, 38.867383525907755 ] } },
{ "type": "Feature", "properties": { "id": null, "Name": null, "Park": null, "All_Trails": null, "Goolge": null, "Difficulty": null, "Length": null, "Elevation": null, "Type": null, "All_Trail2": null }, "geometry": { "type": "Point", "coordinates": [ -78.52066336524085, 38.788871277471415 ] } },
{ "type": "Feature", "properties": { "id": null, "Name": null, "Park": null, "All_Trails": null, "Goolge": null, "Difficulty": null, "Length": null, "Elevation": null, "Type": null, "All_Trail2": null }, "geometry": { "type": "Point", "coordinates": [ -78.508967029074526, 38.782659347737152 ] } },
{ "type": "Feature", "properties": { "id": null, "Name": null, "Park": null, "All_Trails": null, "Goolge": null, "Difficulty": null, "Length": null, "Elevation": null, "Type": null, "All_Trail2": null }, "geometry": { "type": "Point", "coordinates": [ -78.533590894687848, 38.72794442956485 ] } },
{ "type": "Feature", "properties": { "id": null, "Name": null, "Park": null, "All_Trails": null, "Goolge": null, "Difficulty": null, "Length": null, "Elevation": null, "Type": null, "All_Trail2": null }, "geometry": { "type": "Point", "coordinates": [ -78.515342543929975, 38.727892771105523 ] } },
{ "type": "Feature", "properties": { "id": null, "Name": null, "Park": null, "All_Trails": null, "Goolge": null, "Difficulty": null, "Length": null, "Elevation": null, "Type": null, "All_Trail2": null }, "geometry": { "type": "Point", "coordinates": [ -78.509475003924592, 38.72537872608487 ] } },
{ "type": "Feature", "properties": { "id": null, "Name": null, "Park": null, "All_Trails": null, "Goolge": null, "Difficulty": null, "Length": null, "Elevation": null, "Type": null, "All_Trail2": null }, "geometry": { "type": "Point", "coordinates": [ -78.422822243272364, 38.770239793140213 ] } },
{ "type": "Feature", "properties": { "id": null, "Name": null, "Park": null, "All_Trails": null, "Goolge": null, "Difficulty": null, "Length": null, "Elevation": null, "Type": null, "All_Trail2": null }, "geometry": { "type": "Point", "coordinates": [ -78.297823838747789, 38.760700197650927 ] } },
{ "type": "Feature", "properties": { "id": null, "Name": "Hogback Mountain via Appalachian and Piney Branch Trail", "Park": "Shenandoah National Park", "All_Trails": "https://www.alltrails.com/trail/us/virginia/appalachian-trail-hogback-overlook-to-jenkins-gap", "Goolge": "https://maps.app.goo.gl/128DezwruAg2B5v17", "Difficulty": "Moderate", "Length": "7.1mi", "Elevation": 1289, "Type": "Hike", "All_Trail2": null }, "geometry": { "type": "Point", "coordinates": [ -78.282076618395806, 38.760992928920466 ] } },
{ "type": "Feature", "properties": { "id": null, "Name": "Sugarloaf to Keyser Run to Hogback Mountain Loop", "Park": "Shenandoah National Park", "All_Trails": "https://www.alltrails.com/trail/us/virginia/sugarloaf-to-keyser-run-to-hogback-mountain-loop", "Goolge": "https://maps.app.goo.gl/qvbignL5BFtBMkPB8", "Difficulty": "Moderate", "Length": "5.3mi", "Elevation": 964, "Type": "Hike", "All_Trail2": null }, "geometry": { "type": "Point", "coordinates": [ -78.277565112947784, 38.761974439647709 ] } },
{ "type": "Feature", "properties": { "id": null, "Name": "Hogback Mountain via Appalachian and Piney Branch Trail", "Park": "Shenandoah National Park", "All_Trails": "https://www.alltrails.com/trail/us/virginia/appalachian-trail-hogback-overlook-to-jenkins-gap", "Goolge": "https://maps.app.goo.gl/XCpkf2EJ4VBugK6cA", "Difficulty": "Moderate", "Length": "7.1mi", "Elevation": 1289, "Type": "Hike", "All_Trail2": null }, "geometry": { "type": "Point", "coordinates": [ -78.27736278398207, 38.762064841951528 ] } },
{ "type": "Feature", "properties": { "id": null, "Name": null, "Park": null, "All_Trails": null, "Goolge": null, "Difficulty": null, "Length": null, "Elevation": null, "Type": null, "All_Trail2": null }, "geometry": { "type": "Point", "coordinates": [ -78.293295113813301, 38.763571547015289 ] } },
{ "type": "Feature", "properties": { "id": null, "Name": null, "Park": null, "All_Trails": null, "Goolge": null, "Difficulty": null, "Length": null, "Elevation": null, "Type": null, "All_Trail2": null }, "geometry": { "type": "Point", "coordinates": [ -78.295395891159302, 38.7665505181699 ] } },
{ "type": "Feature", "properties": { "id": null, "Name": null, "Park": null, "All_Trails": null, "Goolge": null, "Difficulty": null, "Length": null, "Elevation": null, "Type": null, "All_Trail2": null }, "geometry": { "type": "Point", "coordinates": [ -78.299554397135267, 38.761496598898916 ] } },
{ "type": "Feature", "properties": { "id": null, "Name": null, "Park": null, "All_Trails": null, "Goolge": null, "Difficulty": null, "Length": null, "Elevation": null, "Type": null, "All_Trail2": null }, "geometry": { "type": "Point", "coordinates": [ -78.351421642736938, 38.973459867267039 ] } },
{ "type": "Feature", "properties": { "id": null, "Name": "Old Rag Circuit Hike", "Park": "Shenandoah National Park", "All_Trails": "http://alltrails.com/trail/us/virginia/old-rag-mountain-loop-trail", "Goolge": "https://maps.app.goo.gl/ztvLYyj9ybY7VitPA", "Difficulty": "Hard", "Length": "9.3mi", "Elevation": 2610, "Type": "Hike", "All_Trail2": null }, "geometry": { "type": "Point", "coordinates": [ -78.29591462818847, 38.573103578817346 ] } },
{ "type": "Feature", "properties": { "id": null, "Name": "Robertson Mountain Trail Loop", "Park": "Shenandoah National Park", "All_Trails": "https://www.alltrails.com/trail/us/virginia/robertson-mountain-trail-loop", "Goolge": "https://maps.app.goo.gl/ztvLYyj9ybY7VitPA", "Difficulty": "Hard", "Length": "8.3mi", "Elevation": 2431, "Type": "Hike", "All_Trail2": null }, "geometry": { "type": "Point", "coordinates": [ -78.300350798383306, 38.570401195663727 ] } },
{ "type": "Feature", "properties": { "id": null, "Name": "Broad Hollow and Pine Hill Gap Trail", "Park": "Shenandoah National Park", "All_Trails": "https://www.alltrails.com/trail/us/virginia/pine-hill-gap-trail", "Goolge": "https://maps.app.goo.gl/amTKVbCcwRbL9WVj9", "Difficulty": "Moderate", "Length": "5.9mi", "Elevation": 1604, "Type": "Hike", "All_Trail2": null }, "geometry": { "type": "Point", "coordinates": [ -78.274954208315918, 38.591681252253366 ] } },
{ "type": "Feature", "properties": { "id": null, "Name": "Broad Hollow Trail", "Park": "Shenandoah National Park", "All_Trails": "https://www.alltrails.com/trail/us/virginia/broad-hollow-trail--2", "Goolge": "https://maps.app.goo.gl/BkDbhxgAkZ19x6vC6", "Difficulty": null, "Length": "4.3mi", "Elevation": 1466, "Type": "Hike", "All_Trail2": null }, "geometry": { "type": "Point", "coordinates": [ -78.272271197084549, 38.594209288106754 ] } },
{ "type": "Feature", "properties": { "id": null, "Name": "Hazel Falls via Hazel River and White Rocks Trail", "Park": "Shenandoah National Park", "All_Trails": "https://www.alltrails.com/trail/us/virginia/cave-falls-via-hazel-river-and-white-rocks-trail", "Goolge": "https://maps.app.goo.gl/ERdyBpLxHZ8BCMt18", "Difficulty": "Hard", "Length": "6.5mi", "Elevation": 1407, "Type": "Hike", "All_Trail2": null }, "geometry": { "type": "Point", "coordinates": [ -78.261807937580215, 38.614997782169354 ] } },
{ "type": "Feature", "properties": { "id": null, "Name": null, "Park": null, "All_Trails": null, "Goolge": null, "Difficulty": null, "Length": null, "Elevation": null, "Type": null, "All_Trail2": null }, "geometry": { "type": "Point", "coordinates": [ -78.304307513502451, 38.895791373667031 ] } },
{ "type": "Feature", "properties": { "id": null, "Name": null, "Park": null, "All_Trails": null, "Goolge": null, "Difficulty": null, "Length": null, "Elevation": null, "Type": null, "All_Trail2": null }, "geometry": { "type": "Point", "coordinates": [ -78.560278408129264, 38.708687662632606 ] } },
{ "type": "Feature", "properties": { "id": null, "Name": null, "Park": null, "All_Trails": null, "Goolge": null, "Difficulty": null, "Length": null, "Elevation": null, "Type": null, "All_Trail2": null }, "geometry": { "type": "Point", "coordinates": [ -78.58003776882245, 38.691594362738833 ] } },
{ "type": "Feature", "properties": { "id": null, "Name": null, "Park": null, "All_Trails": null, "Goolge": null, "Difficulty": null, "Length": null, "Elevation": null, "Type": null, "All_Trail2": null }, "geometry": { "type": "Point", "coordinates": [ -78.56936262891854, 38.683716044109495 ] } },
{ "type": "Feature", "properties": { "id": null, "Name": null, "Park": null, "All_Trails": null, "Goolge": null, "Difficulty": null, "Length": null, "Elevation": null, "Type": null, "All_Trail2": null }, "geometry": { "type": "Point", "coordinates": [ -78.566122674922497, 38.729333288768643 ] } },
{ "type": "Feature", "properties": { "id": null, "Name": null, "Park": null, "All_Trails": null, "Goolge": null, "Difficulty": null, "Length": null, "Elevation": null, "Type": null, "All_Trail2": null }, "geometry": { "type": "Point", "coordinates": [ -78.539429376809579, 38.736583230670036 ] } },
{ "type": "Feature", "properties": { "id": null, "Name": null, "Park": null, "All_Trails": null, "Goolge": null, "Difficulty": null, "Length": null, "Elevation": null, "Type": null, "All_Trail2": null }, "geometry": { "type": "Point", "coordinates": [ -78.634939007219018, 38.557492230975534 ] } },
{ "type": "Feature", "properties": { "id": null, "Name": null, "Park": null, "All_Trails": null, "Goolge": null, "Difficulty": null, "Length": null, "Elevation": null, "Type": null, "All_Trail2": null }, "geometry": { "type": "Point", "coordinates": [ -78.637329018126394, 38.603483595883077 ] } },
{ "type": "Feature", "properties": { "id": null, "Name": null, "Park": null, "All_Trails": null, "Goolge": null, "Difficulty": null, "Length": null, "Elevation": null, "Type": null, "All_Trail2": null }, "geometry": { "type": "Point", "coordinates": [ -78.67797010025798, 38.489444116470665 ] } },
{ "type": "Feature", "properties": { "id": null, "Name": null, "Park": null, "All_Trails": null, "Goolge": null, "Difficulty": null, "Length": null, "Elevation": null, "Type": null, "All_Trail2": null }, "geometry": { "type": "Point", "coordinates": [ -78.708815043457705, 38.496730380726291 ] } },
{ "type": "Feature", "properties": { "id": null, "Name": null, "Park": null, "All_Trails": null, "Goolge": null, "Difficulty": null, "Length": null, "Elevation": null, "Type": null, "All_Trail2": null }, "geometry": { "type": "Point", "coordinates": [ -78.697053865162772, 38.4540879368774 ] } },
{ "type": "Feature", "properties": { "id": null, "Name": null, "Park": null, "All_Trails": null, "Goolge": null, "Difficulty": null, "Length": null, "Elevation": null, "Type": null, "All_Trail2": null }, "geometry": { "type": "Point", "coordinates": [ -78.747164185038372, 38.423569894865601 ] } },
{ "type": "Feature", "properties": { "id": null, "Name": null, "Park": null, "All_Trails": null, "Goolge": null, "Difficulty": null, "Length": null, "Elevation": null, "Type": null, "All_Trail2": null }, "geometry": { "type": "Point", "coordinates": [ -78.768952149214456, 38.429212572592959 ] } },
{ "type": "Feature", "properties": { "id": null, "Name": null, "Park": null, "All_Trails": null, "Goolge": null, "Difficulty": null, "Length": null, "Elevation": null, "Type": null, "All_Trail2": null }, "geometry": { "type": "Point", "coordinates": [ -77.861521670557138, 39.079729591531589 ] } },
{ "type": "Feature", "properties": { "id": null, "Name": null, "Park": null, "All_Trails": null, "Goolge": null, "Difficulty": null, "Length": null, "Elevation": null, "Type": null, "All_Trail2": null }, "geometry": { "type": "Point", "coordinates": [ -77.797768674438231, 39.187686892730625 ] } },
{ "type": "Feature", "properties": { "id": null, "Name": null, "Park": null, "All_Trails": null, "Goolge": null, "Difficulty": null, "Length": null, "Elevation": null, "Type": null, "All_Trail2": null }, "geometry": { "type": "Point", "coordinates": [ -77.502032066416376, 39.089202461510951 ] } },
{ "type": "Feature", "properties": { "id": null, "Name": null, "Park": null, "All_Trails": null, "Goolge": null, "Difficulty": null, "Length": null, "Elevation": null, "Type": null, "All_Trail2": null }, "geometry": { "type": "Point", "coordinates": [ -77.494295404968497, 39.098424707246245 ] } },
{ "type": "Feature", "properties": { "id": null, "Name": null, "Park": null, "All_Trails": null, "Goolge": null, "Difficulty": null, "Length": null, "Elevation": null, "Type": null, "All_Trail2": null }, "geometry": { "type": "Point", "coordinates": [ -77.448351259121452, 39.069512113290763 ] } },
{ "type": "Feature", "properties": { "id": null, "Name": null, "Park": null, "All_Trails": null, "Goolge": null, "Difficulty": null, "Length": null, "Elevation": null, "Type": null, "All_Trail2": null }, "geometry": { "type": "Point", "coordinates": [ -77.474699494869299, 39.087488046391968 ] } },
{ "type": "Feature", "properties": { "id": null, "Name": null, "Park": null, "All_Trails": null, "Goolge": null, "Difficulty": null, "Length": null, "Elevation": null, "Type": null, "All_Trail2": null }, "geometry": { "type": "Point", "coordinates": [ -77.530842957780095, 39.130388378955779 ] } },
{ "type": "Feature", "properties": { "id": null, "Name": null, "Park": null, "All_Trails": null, "Goolge": null, "Difficulty": null, "Length": null, "Elevation": null, "Type": null, "All_Trail2": null }, "geometry": { "type": "Point", "coordinates": [ -77.527922640501174, 39.178929573129238 ] } },
{ "type": "Feature", "properties": { "id": null, "Name": null, "Park": null, "All_Trails": null, "Goolge": null, "Difficulty": null, "Length": null, "Elevation": null, "Type": null, "All_Trail2": null }, "geometry": { "type": "Point", "coordinates": [ -77.407757396050272, 39.055331866205037 ] } },
{ "type": "Feature", "properties": { "id": null, "Name": null, "Park": null, "All_Trails": null, "Goolge": null, "Difficulty": null, "Length": null, "Elevation": null, "Type": null, "All_Trail2": null }, "geometry": { "type": "Point", "coordinates": [ -77.387253427095686, 39.061862625492978 ] } },
{ "type": "Feature", "properties": { "id": null, "Name": null, "Park": null, "All_Trails": null, "Goolge": null, "Difficulty": null, "Length": null, "Elevation": null, "Type": null, "All_Trail2": null }, "geometry": { "type": "Point", "coordinates": [ -77.378136516187624, 39.062026076086951 ] } },
{ "type": "Feature", "properties": { "id": null, "Name": null, "Park": null, "All_Trails": null, "Goolge": null, "Difficulty": null, "Length": null, "Elevation": null, "Type": null, "All_Trail2": null }, "geometry": { "type": "Point", "coordinates": [ -77.381656152311081, 39.054147757457628 ] } },
{ "type": "Feature", "properties": { "id": null, "Name": null, "Park": null, "All_Trails": null, "Goolge": null, "Difficulty": null, "Length": null, "Elevation": null, "Type": null, "All_Trail2": null }, "geometry": { "type": "Point", "coordinates": [ -77.406915625491351, 39.019473530064751 ] } },
{ "type": "Feature", "properties": { "id": null, "Name": null, "Park": null, "All_Trails": null, "Goolge": null, "Difficulty": null, "Length": null, "Elevation": null, "Type": null, "All_Trail2": null }, "geometry": { "type": "Point", "coordinates": [ -77.409536283348004, 39.013796346100875 ] } },
{ "type": "Feature", "properties": { "id": null, "Name": null, "Park": null, "All_Trails": null, "Goolge": null, "Difficulty": null, "Length": null, "Elevation": null, "Type": null, "All_Trail2": null }, "geometry": { "type": "Point", "coordinates": [ -77.404818009535461, 39.016711215026668 ] } },
{ "type": "Feature", "properties": { "id": null, "Name": null, "Park": null, "All_Trails": null, "Goolge": null, "Difficulty": null, "Length": null, "Elevation": null, "Type": null, "All_Trail2": null }, "geometry": { "type": "Point", "coordinates": [ -77.334131075996893, 39.051629710251646 ] } },
{ "type": "Feature", "properties": { "id": null, "Name": null, "Park": null, "All_Trails": null, "Goolge": null, "Difficulty": null, "Length": null, "Elevation": null, "Type": null, "All_Trail2": null }, "geometry": { "type": "Point", "coordinates": [ -77.250428026825205, 39.021783631792829 ] } },
{ "type": "Feature", "properties": { "id": null, "Name": null, "Park": null, "All_Trails": null, "Goolge": null, "Difficulty": null, "Length": null, "Elevation": null, "Type": null, "All_Trail2": null }, "geometry": { "type": "Point", "coordinates": [ -77.256301351501818, 39.017697366943594 ] } },
{ "type": "Feature", "properties": { "id": null, "Name": null, "Park": null, "All_Trails": null, "Goolge": null, "Difficulty": null, "Length": null, "Elevation": null, "Type": null, "All_Trail2": null }, "geometry": { "type": "Point", "coordinates": [ -77.246058447613066, 39.018743450745006 ] } },
{ "type": "Feature", "properties": { "id": null, "Name": null, "Park": null, "All_Trails": null, "Goolge": null, "Difficulty": null, "Length": null, "Elevation": null, "Type": null, "All_Trail2": null }, "geometry": { "type": "Point", "coordinates": [ -77.256366731739405, 39.001812693386348 ] } },
{ "type": "Feature", "properties": { "id": null, "Name": null, "Park": null, "All_Trails": null, "Goolge": null, "Difficulty": null, "Length": null, "Elevation": null, "Type": null, "All_Trail2": null }, "geometry": { "type": "Point", "coordinates": [ -77.255832793132441, 38.998260367144077 ] } },
{ "type": "Feature", "properties": { "id": null, "Name": null, "Park": null, "All_Trails": null, "Goolge": null, "Difficulty": null, "Length": null, "Elevation": null, "Type": null, "All_Trail2": null }, "geometry": { "type": "Point", "coordinates": [ -77.25430725425538, 38.993422229562583 ] } },
{ "type": "Feature", "properties": { "id": null, "Name": null, "Park": null, "All_Trails": null, "Goolge": null, "Difficulty": null, "Length": null, "Elevation": null, "Type": null, "All_Trail2": null }, "geometry": { "type": "Point", "coordinates": [ -77.248935178066887, 38.977643798891428 ] } },
{ "type": "Feature", "properties": { "id": null, "Name": null, "Park": null, "All_Trails": null, "Goolge": null, "Difficulty": null, "Length": null, "Elevation": null, "Type": null, "All_Trail2": null }, "geometry": { "type": "Point", "coordinates": [ -77.269164913247181, 38.970767977238481 ] } },
{ "type": "Feature", "properties": { "id": null, "Name": null, "Park": null, "All_Trails": null, "Goolge": null, "Difficulty": null, "Length": null, "Elevation": null, "Type": null, "All_Trail2": null }, "geometry": { "type": "Point", "coordinates": [ -77.288599188870123, 38.967553448890428 ] } },
{ "type": "Feature", "properties": { "id": null, "Name": null, "Park": null, "All_Trails": null, "Goolge": null, "Difficulty": null, "Length": null, "Elevation": null, "Type": null, "All_Trail2": null }, "geometry": { "type": "Point", "coordinates": [ -77.29230406900011, 38.966817921217554 ] } },
{ "type": "Feature", "properties": { "id": null, "Name": null, "Park": null, "All_Trails": null, "Goolge": null, "Difficulty": null, "Length": null, "Elevation": null, "Type": null, "All_Trail2": null }, "geometry": { "type": "Point", "coordinates": [ -77.309499071485689, 38.965368659284358 ] } },
{ "type": "Feature", "properties": { "id": null, "Name": null, "Park": null, "All_Trails": null, "Goolge": null, "Difficulty": null, "Length": null, "Elevation": null, "Type": null, "All_Trail2": null }, "geometry": { "type": "Point", "coordinates": [ -77.319109966411105, 38.960225413927446 ] } },
{ "type": "Feature", "properties": { "id": null, "Name": null, "Park": null, "All_Trails": null, "Goolge": null, "Difficulty": null, "Length": null, "Elevation": null, "Type": null, "All_Trail2": null }, "geometry": { "type": "Point", "coordinates": [ -77.320788059175854, 38.970860599241718 ] } },
{ "type": "Feature", "properties": { "id": null, "Name": null, "Park": null, "All_Trails": null, "Goolge": null, "Difficulty": null, "Length": null, "Elevation": null, "Type": null, "All_Trail2": null }, "geometry": { "type": "Point", "coordinates": [ -77.316647310795304, 38.968920985526623 ] } },
{ "type": "Feature", "properties": { "id": null, "Name": null, "Park": null, "All_Trails": null, "Goolge": null, "Difficulty": null, "Length": null, "Elevation": null, "Type": null, "All_Trail2": null }, "geometry": { "type": "Point", "coordinates": [ -77.31776967154056, 38.96363608298828 ] } },
{ "type": "Feature", "properties": { "id": null, "Name": null, "Park": null, "All_Trails": null, "Goolge": null, "Difficulty": null, "Length": null, "Elevation": null, "Type": null, "All_Trail2": null }, "geometry": { "type": "Point", "coordinates": [ -77.331946286390831, 38.951660602803457 ] } },
{ "type": "Feature", "properties": { "id": null, "Name": null, "Park": null, "All_Trails": null, "Goolge": null, "Difficulty": null, "Length": null, "Elevation": null, "Type": null, "All_Trail2": null }, "geometry": { "type": "Point", "coordinates": [ -77.334103834231243, 38.955812247890286 ] } },
{ "type": "Feature", "properties": { "id": null, "Name": null, "Park": null, "All_Trails": null, "Goolge": null, "Difficulty": null, "Length": null, "Elevation": null, "Type": null, "All_Trail2": null }, "geometry": { "type": "Point", "coordinates": [ -77.329167626293369, 38.925323263761868 ] } },
{ "type": "Feature", "properties": { "id": null, "Name": null, "Park": null, "All_Trails": null, "Goolge": null, "Difficulty": null, "Length": null, "Elevation": null, "Type": null, "All_Trail2": null }, "geometry": { "type": "Point", "coordinates": [ -77.324732666843659, 38.931757768811124 ] } },
{ "type": "Feature", "properties": { "id": null, "Name": null, "Park": null, "All_Trails": null, "Goolge": null, "Difficulty": null, "Length": null, "Elevation": null, "Type": null, "All_Trail2": null }, "geometry": { "type": "Point", "coordinates": [ -77.320645039906168, 38.903502609466955 ] } },
{ "type": "Feature", "properties": { "id": null, "Name": null, "Park": null, "All_Trails": null, "Goolge": null, "Difficulty": null, "Length": null, "Elevation": null, "Type": null, "All_Trail2": null }, "geometry": { "type": "Point", "coordinates": [ -77.324649579458409, 38.888132805280769 ] } },
{ "type": "Feature", "properties": { "id": null, "Name": null, "Park": null, "All_Trails": null, "Goolge": null, "Difficulty": null, "Length": null, "Elevation": null, "Type": null, "All_Trail2": null }, "geometry": { "type": "Point", "coordinates": [ -77.312548106107471, 38.879676280175325 ] } },
{ "type": "Feature", "properties": { "id": null, "Name": null, "Park": null, "All_Trails": null, "Goolge": null, "Difficulty": null, "Length": null, "Elevation": null, "Type": null, "All_Trail2": null }, "geometry": { "type": "Point", "coordinates": [ -77.353680448079672, 38.897145062405713 ] } },
{ "type": "Feature", "properties": { "id": null, "Name": null, "Park": null, "All_Trails": null, "Goolge": null, "Difficulty": null, "Length": null, "Elevation": null, "Type": null, "All_Trail2": null }, "geometry": { "type": "Point", "coordinates": [ -77.281190109654645, 38.937697154769303 ] } },
{ "type": "Feature", "properties": { "id": null, "Name": null, "Park": null, "All_Trails": null, "Goolge": null, "Difficulty": null, "Length": null, "Elevation": null, "Type": null, "All_Trail2": null }, "geometry": { "type": "Point", "coordinates": [ -77.267108840984264, 38.940868096292299 ] } },
{ "type": "Feature", "properties": { "id": null, "Name": null, "Park": null, "All_Trails": null, "Goolge": null, "Difficulty": null, "Length": null, "Elevation": null, "Type": null, "All_Trail2": null }, "geometry": { "type": "Point", "coordinates": [ -77.267623710355267, 38.938996586991358 ] } },
{ "type": "Feature", "properties": { "id": null, "Name": null, "Park": null, "All_Trails": null, "Goolge": null, "Difficulty": null, "Length": null, "Elevation": null, "Type": null, "All_Trail2": null }, "geometry": { "type": "Point", "coordinates": [ -77.26308795637263, 38.936618380849119 ] } },
{ "type": "Feature", "properties": { "id": null, "Name": null, "Park": null, "All_Trails": null, "Goolge": null, "Difficulty": null, "Length": null, "Elevation": null, "Type": null, "All_Trail2": null }, "geometry": { "type": "Point", "coordinates": [ -77.204948580097991, 38.959550499182917 ] } },
{ "type": "Feature", "properties": { "id": null, "Name": null, "Park": null, "All_Trails": null, "Goolge": null, "Difficulty": null, "Length": null, "Elevation": null, "Type": null, "All_Trail2": null }, "geometry": { "type": "Point", "coordinates": [ -77.198116345270108, 38.956289659833246 ] } },
{ "type": "Feature", "properties": { "id": null, "Name": null, "Park": null, "All_Trails": null, "Goolge": null, "Difficulty": null, "Length": null, "Elevation": null, "Type": null, "All_Trail2": null }, "geometry": { "type": "Point", "coordinates": [ -77.153073447837201, 38.964278307613476 ] } },
{ "type": "Feature", "properties": { "id": null, "Name": null, "Park": null, "All_Trails": null, "Goolge": null, "Difficulty": null, "Length": null, "Elevation": null, "Type": null, "All_Trail2": null }, "geometry": { "type": "Point", "coordinates": [ -77.11738222290326, 38.921525250845484 ] } },
{ "type": "Feature", "properties": { "id": null, "Name": null, "Park": null, "All_Trails": null, "Goolge": null, "Difficulty": null, "Length": null, "Elevation": null, "Type": null, "All_Trail2": null }, "geometry": { "type": "Point", "coordinates": [ -77.064193516112809, 38.772616524212438 ] } },
{ "type": "Feature", "properties": { "id": null, "Name": null, "Park": null, "All_Trails": null, "Goolge": null, "Difficulty": null, "Length": null, "Elevation": null, "Type": null, "All_Trail2": null }, "geometry": { "type": "Point", "coordinates": [ -77.060631953209381, 38.765048634015869 ] } },
{ "type": "Feature", "properties": { "id": null, "Name": null, "Park": null, "All_Trails": null, "Goolge": null, "Difficulty": null, "Length": null, "Elevation": null, "Type": null, "All_Trail2": null }, "geometry": { "type": "Point", "coordinates": [ -77.805533006853764, 38.67215148893321 ] } },
{ "type": "Feature", "properties": { "id": null, "Name": null, "Park": null, "All_Trails": null, "Goolge": null, "Difficulty": null, "Length": null, "Elevation": null, "Type": null, "All_Trail2": null }, "geometry": { "type": "Point", "coordinates": [ -77.815445391507566, 38.664321567003192 ] } },
{ "type": "Feature", "properties": { "id": null, "Name": null, "Park": null, "All_Trails": null, "Goolge": null, "Difficulty": null, "Length": null, "Elevation": null, "Type": null, "All_Trail2": null }, "geometry": { "type": "Point", "coordinates": [ -77.699730798898301, 38.662887288041098 ] } },
{ "type": "Feature", "properties": { "id": null, "Name": null, "Park": null, "All_Trails": null, "Goolge": null, "Difficulty": null, "Length": null, "Elevation": null, "Type": null, "All_Trail2": null }, "geometry": { "type": "Point", "coordinates": [ -77.706378130241816, 38.82489185503723 ] } },
{ "type": "Feature", "properties": { "id": null, "Name": null, "Park": null, "All_Trails": null, "Goolge": null, "Difficulty": null, "Length": null, "Elevation": null, "Type": null, "All_Trail2": null }, "geometry": { "type": "Point", "coordinates": [ -77.698241355360778, 38.824905646181094 ] } },
{ "type": "Feature", "properties": { "id": null, "Name": null, "Park": null, "All_Trails": null, "Goolge": null, "Difficulty": null, "Length": null, "Elevation": null, "Type": null, "All_Trail2": null }, "geometry": { "type": "Point", "coordinates": [ -77.410558094312108, 38.93845502920334 ] } },
{ "type": "Feature", "properties": { "id": null, "Name": null, "Park": null, "All_Trails": null, "Goolge": null, "Difficulty": null, "Length": null, "Elevation": null, "Type": null, "All_Trail2": null }, "geometry": { "type": "Point", "coordinates": [ -77.361235792167705, 38.913260333252808 ] } },
{ "type": "Feature", "properties": { "id": null, "Name": null, "Park": null, "All_Trails": null, "Goolge": null, "Difficulty": null, "Length": null, "Elevation": null, "Type": null, "All_Trail2": null }, "geometry": { "type": "Point", "coordinates": [ -77.274861858133804, 38.888519021156888 ] } },
{ "type": "Feature", "properties": { "id": null, "Name": null, "Park": null, "All_Trails": null, "Goolge": null, "Difficulty": null, "Length": null, "Elevation": null, "Type": null, "All_Trail2": null }, "geometry": { "type": "Point", "coordinates": [ -77.224610377671354, 38.814650206823622 ] } },
{ "type": "Feature", "properties": { "id": null, "Name": null, "Park": null, "All_Trails": null, "Goolge": null, "Difficulty": null, "Length": null, "Elevation": null, "Type": null, "All_Trail2": null }, "geometry": { "type": "Point", "coordinates": [ -77.224079418632499, 38.818415189099092 ] } },
{ "type": "Feature", "properties": { "id": null, "Name": null, "Park": null, "All_Trails": null, "Goolge": null, "Difficulty": null, "Length": null, "Elevation": null, "Type": null, "All_Trail2": null }, "geometry": { "type": "Point", "coordinates": [ -77.220493721227285, 38.833323415618445 ] } },
{ "type": "Feature", "properties": { "id": null, "Name": null, "Park": null, "All_Trails": null, "Goolge": null, "Difficulty": null, "Length": null, "Elevation": null, "Type": null, "All_Trail2": null }, "geometry": { "type": "Point", "coordinates": [ -77.271058950212648, 38.86099189799998 ] } },
{ "type": "Feature", "properties": { "id": null, "Name": null, "Park": null, "All_Trails": null, "Goolge": null, "Difficulty": null, "Length": null, "Elevation": null, "Type": null, "All_Trail2": null }, "geometry": { "type": "Point", "coordinates": [ -77.211405357419451, 38.83778140287319 ] } },
{ "type": "Feature", "properties": { "id": null, "Name": null, "Park": null, "All_Trails": null, "Goolge": null, "Difficulty": null, "Length": null, "Elevation": null, "Type": null, "All_Trail2": null }, "geometry": { "type": "Point", "coordinates": [ -77.192366683312187, 38.853041303561106 ] } },
{ "type": "Feature", "properties": { "id": null, "Name": null, "Park": null, "All_Trails": null, "Goolge": null, "Difficulty": null, "Length": null, "Elevation": null, "Type": null, "All_Trail2": null }, "geometry": { "type": "Point", "coordinates": [ -77.176255179490525, 38.834219839969727 ] } },
{ "type": "Feature", "properties": { "id": null, "Name": null, "Park": null, "All_Trails": null, "Goolge": null, "Difficulty": null, "Length": null, "Elevation": null, "Type": null, "All_Trail2": null }, "geometry": { "type": "Point", "coordinates": [ -77.10241049965903, 38.792384405051656 ] } },
{ "type": "Feature", "properties": { "id": null, "Name": null, "Park": null, "All_Trails": null, "Goolge": null, "Difficulty": null, "Length": null, "Elevation": null, "Type": null, "All_Trail2": null }, "geometry": { "type": "Point", "coordinates": [ -77.117594549055724, 38.764202202561108 ] } },
{ "type": "Feature", "properties": { "id": null, "Name": null, "Park": null, "All_Trails": null, "Goolge": null, "Difficulty": null, "Length": null, "Elevation": null, "Type": null, "All_Trail2": null }, "geometry": { "type": "Point", "coordinates": [ -77.120107985025328, 38.767219015281825 ] } },
{ "type": "Feature", "properties": { "id": null, "Name": null, "Park": null, "All_Trails": null, "Goolge": null, "Difficulty": null, "Length": null, "Elevation": null, "Type": null, "All_Trail2": null }, "geometry": { "type": "Point", "coordinates": [ -77.110085271220569, 38.773404343305806 ] } },
{ "type": "Feature", "properties": { "id": null, "Name": null, "Park": null, "All_Trails": null, "Goolge": null, "Difficulty": null, "Length": null, "Elevation": null, "Type": null, "All_Trail2": null }, "geometry": { "type": "Point", "coordinates": [ -77.330067807030147, 38.724852621324871 ] } },
{ "type": "Feature", "properties": { "id": null, "Name": null, "Park": null, "All_Trails": null, "Goolge": null, "Difficulty": null, "Length": null, "Elevation": null, "Type": null, "All_Trail2": null }, "geometry": { "type": "Point", "coordinates": [ -77.358698221696329, 38.728024584414101 ] } },
{ "type": "Feature", "properties": { "id": null, "Name": null, "Park": null, "All_Trails": null, "Goolge": null, "Difficulty": null, "Length": null, "Elevation": null, "Type": null, "All_Trail2": null }, "geometry": { "type": "Point", "coordinates": [ -77.384267002424238, 38.743925773291828 ] } },
{ "type": "Feature", "properties": { "id": null, "Name": null, "Park": null, "All_Trails": null, "Goolge": null, "Difficulty": null, "Length": null, "Elevation": null, "Type": null, "All_Trail2": null }, "geometry": { "type": "Point", "coordinates": [ -77.407160301242101, 38.766391546649849 ] } },
{ "type": "Feature", "properties": { "id": null, "Name": null, "Park": null, "All_Trails": null, "Goolge": null, "Difficulty": null, "Length": null, "Elevation": null, "Type": null, "All_Trail2": null }, "geometry": { "type": "Point", "coordinates": [ -77.427457417227146, 38.769580748668936 ] } },
{ "type": "Feature", "properties": { "id": null, "Name": null, "Park": null, "All_Trails": null, "Goolge": null, "Difficulty": null, "Length": null, "Elevation": null, "Type": null, "All_Trail2": null }, "geometry": { "type": "Point", "coordinates": [ -77.245965963948152, 38.701362855534867 ] } },
{ "type": "Feature", "properties": { "id": null, "Name": null, "Park": null, "All_Trails": null, "Goolge": null, "Difficulty": null, "Length": null, "Elevation": null, "Type": null, "All_Trail2": null }, "geometry": { "type": "Point", "coordinates": [ -77.209405641558888, 38.684282523856602 ] } },
{ "type": "Feature", "properties": { "id": null, "Name": null, "Park": null, "All_Trails": null, "Goolge": null, "Difficulty": null, "Length": null, "Elevation": null, "Type": null, "All_Trail2": null }, "geometry": { "type": "Point", "coordinates": [ -77.198262397315006, 38.642405715506918 ] } },
{ "type": "Feature", "properties": { "id": null, "Name": null, "Park": null, "All_Trails": null, "Goolge": null, "Difficulty": null, "Length": null, "Elevation": null, "Type": null, "All_Trail2": null }, "geometry": { "type": "Point", "coordinates": [ -77.164839560155315, 38.648480714379978 ] } },
{ "type": "Feature", "properties": { "id": null, "Name": null, "Park": null, "All_Trails": null, "Goolge": null, "Difficulty": null, "Length": null, "Elevation": null, "Type": null, "All_Trail2": null }, "geometry": { "type": "Point", "coordinates": [ -77.161626223634485, 38.657500122468463 ] } },
{ "type": "Feature", "properties": { "id": null, "Name": null, "Park": null, "All_Trails": null, "Goolge": null, "Difficulty": null, "Length": null, "Elevation": null, "Type": null, "All_Trail2": null }, "geometry": { "type": "Point", "coordinates": [ -77.145394047303981, 38.64179200960487 ] } },
{ "type": "Feature", "properties": { "id": null, "Name": null, "Park": null, "All_Trails": null, "Goolge": null, "Difficulty": null, "Length": null, "Elevation": null, "Type": null, "All_Trail2": null }, "geometry": { "type": "Point", "coordinates": [ -77.248213920398342, 38.591130242612429 ] } },
{ "type": "Feature", "properties": { "id": null, "Name": null, "Park": null, "All_Trails": null, "Goolge": null, "Difficulty": null, "Length": null, "Elevation": null, "Type": null, "All_Trail2": null }, "geometry": { "type": "Point", "coordinates": [ -77.253295956913036, 38.588199624540863 ] } },
{ "type": "Feature", "properties": { "id": null, "Name": null, "Park": null, "All_Trails": null, "Goolge": null, "Difficulty": null, "Length": null, "Elevation": null, "Type": null, "All_Trail2": null }, "geometry": { "type": "Point", "coordinates": [ -77.277413219749064, 38.605500614520984 ] } },
{ "type": "Feature", "properties": { "id": null, "Name": null, "Park": null, "All_Trails": null, "Goolge": null, "Difficulty": null, "Length": null, "Elevation": null, "Type": null, "All_Trail2": null }, "geometry": { "type": "Point", "coordinates": [ -77.274172300940521, 38.612196214868035 ] } },
{ "type": "Feature", "properties": { "id": null, "Name": null, "Park": null, "All_Trails": null, "Goolge": null, "Difficulty": null, "Length": null, "Elevation": null, "Type": null, "All_Trail2": null }, "geometry": { "type": "Point", "coordinates": [ -77.237245651292298, 38.644957077122179 ] } },
{ "type": "Feature", "properties": { "id": null, "Name": null, "Park": null, "All_Trails": null, "Goolge": null, "Difficulty": null, "Length": null, "Elevation": null, "Type": null, "All_Trail2": null }, "geometry": { "type": "Point", "coordinates": [ -77.353084364196349, 38.532152415868687 ] } },
{ "type": "Feature", "properties": { "id": null, "Name": null, "Park": null, "All_Trails": null, "Goolge": null, "Difficulty": null, "Length": null, "Elevation": null, "Type": null, "All_Trail2": null }, "geometry": { "type": "Point", "coordinates": [ -77.372081664872027, 38.522967514053811 ] } },
{ "type": "Feature", "properties": { "id": null, "Name": null, "Park": null, "All_Trails": null, "Goolge": null, "Difficulty": null, "Length": null, "Elevation": null, "Type": null, "All_Trail2": null }, "geometry": { "type": "Point", "coordinates": [ -77.348485017716982, 38.559272700281561 ] } },
{ "type": "Feature", "properties": { "id": null, "Name": null, "Park": null, "All_Trails": null, "Goolge": null, "Difficulty": null, "Length": null, "Elevation": null, "Type": null, "All_Trail2": null }, "geometry": { "type": "Point", "coordinates": [ -77.332532112049776, 38.53371253901858 ] } },
{ "type": "Feature", "properties": { "id": null, "Name": null, "Park": null, "All_Trails": null, "Goolge": null, "Difficulty": null, "Length": null, "Elevation": null, "Type": null, "All_Trail2": null }, "geometry": { "type": "Point", "coordinates": [ -77.38747602921265, 38.448104013469205 ] } },
{ "type": "Feature", "properties": { "id": null, "Name": null, "Park": null, "All_Trails": null, "Goolge": null, "Difficulty": null, "Length": null, "Elevation": null, "Type": null, "All_Trail2": null }, "geometry": { "type": "Point", "coordinates": [ -77.752072499603003, 38.464418936662931 ] } },
{ "type": "Feature", "properties": { "id": null, "Name": null, "Park": null, "All_Trails": null, "Goolge": null, "Difficulty": null, "Length": null, "Elevation": null, "Type": null, "All_Trail2": null }, "geometry": { "type": "Point", "coordinates": [ -77.768015061912322, 38.473686585341014 ] } },
{ "type": "Feature", "properties": { "id": null, "Name": null, "Park": null, "All_Trails": null, "Goolge": null, "Difficulty": null, "Length": null, "Elevation": null, "Type": null, "All_Trail2": null }, "geometry": { "type": "Point", "coordinates": [ -77.736819494487008, 38.46874935583692 ] } },
{ "type": "Feature", "properties": { "id": null, "Name": null, "Park": null, "All_Trails": null, "Goolge": null, "Difficulty": null, "Length": null, "Elevation": null, "Type": null, "All_Trail2": null }, "geometry": { "type": "Point", "coordinates": [ -77.750114157174011, 38.480113258382659 ] } },
{ "type": "Feature", "properties": { "id": null, "Name": null, "Park": null, "All_Trails": null, "Goolge": null, "Difficulty": null, "Length": null, "Elevation": null, "Type": null, "All_Trail2": null }, "geometry": { "type": "Point", "coordinates": [ -77.728351732153172, 38.43264414119524 ] } },
{ "type": "Feature", "properties": { "id": null, "Name": null, "Park": null, "All_Trails": null, "Goolge": null, "Difficulty": null, "Length": null, "Elevation": null, "Type": null, "All_Trail2": null }, "geometry": { "type": "Point", "coordinates": [ -77.542295410254425, 38.254793549896888 ] } },
{ "type": "Feature", "properties": { "id": null, "Name": null, "Park": null, "All_Trails": null, "Goolge": null, "Difficulty": null, "Length": null, "Elevation": null, "Type": null, "All_Trail2": null }, "geometry": { "type": "Point", "coordinates": [ -77.536116977802365, 38.199132493252961 ] } },
{ "type": "Feature", "properties": { "id": null, "Name": null, "Park": null, "All_Trails": null, "Goolge": null, "Difficulty": null, "Length": null, "Elevation": null, "Type": null, "All_Trail2": null }, "geometry": { "type": "Point", "coordinates": [ -77.818890591634698, 38.116633870645416 ] } },
{ "type": "Feature", "properties": { "id": null, "Name": null, "Park": null, "All_Trails": null, "Goolge": null, "Difficulty": null, "Length": null, "Elevation": null, "Type": null, "All_Trail2": null }, "geometry": { "type": "Point", "coordinates": [ -77.831578443991603, 38.112496527485547 ] } },
{ "type": "Feature", "properties": { "id": null, "Name": null, "Park": null, "All_Trails": null, "Goolge": null, "Difficulty": null, "Length": null, "Elevation": null, "Type": null, "All_Trail2": null }, "geometry": { "type": "Point", "coordinates": [ -77.142821137026445, 38.333954715688805 ] } },
{ "type": "Feature", "properties": { "id": null, "Name": null, "Park": null, "All_Trails": null, "Goolge": null, "Difficulty": null, "Length": null, "Elevation": null, "Type": null, "All_Trail2": null }, "geometry": { "type": "Point", "coordinates": [ -76.876865823138971, 38.146767519993027 ] } },
{ "type": "Feature", "properties": { "id": null, "Name": null, "Park": null, "All_Trails": null, "Goolge": null, "Difficulty": null, "Length": null, "Elevation": null, "Type": null, "All_Trail2": null }, "geometry": { "type": "Point", "coordinates": [ -76.863295337574641, 38.169791834677618 ] } },
{ "type": "Feature", "properties": { "id": null, "Name": null, "Park": null, "All_Trails": null, "Goolge": null, "Difficulty": null, "Length": null, "Elevation": null, "Type": null, "All_Trail2": null }, "geometry": { "type": "Point", "coordinates": [ -76.868315313941935, 38.16884024575085 ] } },
{ "type": "Feature", "properties": { "id": null, "Name": null, "Park": null, "All_Trails": null, "Goolge": null, "Difficulty": null, "Length": null, "Elevation": null, "Type": null, "All_Trail2": null }, "geometry": { "type": "Point", "coordinates": [ -76.879334437891032, 38.173732654037401 ] } },
{ "type": "Feature", "properties": { "id": null, "Name": null, "Park": null, "All_Trails": null, "Goolge": null, "Difficulty": null, "Length": null, "Elevation": null, "Type": null, "All_Trail2": null }, "geometry": { "type": "Point", "coordinates": [ -77.358511179307712, 38.37425243806581 ] } },
{ "type": "Feature", "properties": { "id": null, "Name": null, "Park": null, "All_Trails": null, "Goolge": null, "Difficulty": null, "Length": null, "Elevation": null, "Type": null, "All_Trail2": null }, "geometry": { "type": "Point", "coordinates": [ -77.342210047257879, 38.362171396039031 ] } },
{ "type": "Feature", "properties": { "id": null, "Name": null, "Park": null, "All_Trails": null, "Goolge": null, "Difficulty": null, "Length": null, "Elevation": null, "Type": null, "All_Trail2": null }, "geometry": { "type": "Point", "coordinates": [ -77.30673232966214, 38.519224942387197 ] } },
{ "type": "Feature", "properties": { "id": null, "Name": "Cedar Creek Trail", "Park": "George Washington National Forest", "All_Trails": "https://www.alltrails.com/trail/us/virginia/cedar-creek-trail--2", "Goolge": "https://maps.app.goo.gl/Dj3nbRf317g3ExGRA", "Difficulty": "Moderate", "Length": "4.5mi", "Elevation": 511, "Type": "Hike", "All_Trail2": null }, "geometry": { "type": "Point", "coordinates": [ -78.563215865022784, 38.971250369317303 ] } },
{ "type": "Feature", "properties": { "id": null, "Name": "Dry Gap via Tuscarora Trail", "Park": "George Washington National Forest", "All_Trails": "http://alltrails.com/trail/us/west-virginia/dry-gap", "Goolge": "https://maps.app.goo.gl/E9q2VKuH2c8xPsJ57", "Difficulty": "Moderate", "Length": "5.2mi", "Elevation": 741, "Type": "Hike", "All_Trail2": null }, "geometry": { "type": "Point", "coordinates": [ -78.510699189180329, 39.085247964515219 ] } },
{ "type": "Feature", "properties": { "id": null, "Name": "Eagle Rock", "Park": "George Washington National Forest", "All_Trails": "https://www.alltrails.com/trail/us/west-virginia/eagle-rock", "Goolge": "https://maps.app.goo.gl/bbQg6LoGdnq5o2uX7", "Difficulty": "Easy", "Length": "2.3mi", "Elevation": 459, "Type": "Hike", "All_Trail2": null }, "geometry": { "type": "Point", "coordinates": [ -78.477821102203336, 39.109644498014504 ] } },
{ "type": "Feature", "properties": { "id": null, "Name": "Little Schloss and Big Schloss Loop", "Park": "George Washington and Jefferson National Forests", "All_Trails": "https://www.alltrails.com/trail/us/virginia/little-schloss-big-schloss-loop", "Goolge": "https://maps.app.goo.gl/9q6b2BtnyyjG1auS6", "Difficulty": "Hard", "Length": "17.2mi", "Elevation": 3133, "Type": "Hike", "All_Trail2": null }, "geometry": { "type": "Point", "coordinates": [ -78.640873796133235, 38.908497216940198 ] } },
{ "type": "Feature", "properties": { "id": null, "Name": "Big Schloss Loop", "Park": "George Washington and Jefferson National Forests", "All_Trails": "https://www.alltrails.com/trail/us/west-virginia/big-schloss-loop", "Goolge": "https://maps.app.goo.gl/pqQ7eetvVa7VeTny9", "Difficulty": "Hard", "Length": "12.2mi", "Elevation": 2329, "Type": "Hike", "All_Trail2": null }, "geometry": { "type": "Point", "coordinates": [ -78.64625923781297, 38.937886144519041 ] } },
{ "type": "Feature", "properties": { "id": null, "Name": "Big Schloss Cutoff Trail", "Park": "George Washington and Jefferson National Forests", "All_Trails": "https://www.alltrails.com/trail/us/west-virginia/big-schloss-cutoff-trail", "Goolge": "https://maps.app.goo.gl/mwQgX21zeVMRZ2xEA", "Difficulty": "Moderate", "Length": "3.3mi", "Elevation": 1151, "Type": null, "All_Trail2": null }, "geometry": { "type": "Point", "coordinates": [ -78.654230518967637, 38.933597098776659 ] } },
{ "type": "Feature", "properties": { "id": null, "Name": "Big Schloss via Wolf Gap Trail", "Park": "Wolf Gap Recreation Area", "All_Trails": "https://www.alltrails.com/trail/us/west-virginia/big-schloss-via-wolf-gap-trail", "Goolge": "https://maps.app.goo.gl/qgd8WMsoVgwc8vkE7", "Difficulty": "Moderate", "Length": "4.3mi", "Elevation": 1053, "Type": "Hike", "All_Trail2": null }, "geometry": { "type": "Point", "coordinates": [ -78.689270367745635, 38.924346689028411 ] } },
{ "type": "Feature", "properties": { "id": null, "Name": "Tibbet Knob Trail from Judge Rye Road", "Park": "Wolf Gap Recreation Area", "All_Trails": "https://www.alltrails.com/trail/us/virginia/tibbet-knob-trail-from-judge-rye-road", "Goolge": "https://maps.app.goo.gl/CkVmHHxaaqPCBkRe7", "Difficulty": "Moderate", "Length": "1.8mi", "Elevation": 400, "Type": null, "All_Trail2": null }, "geometry": { "type": "Point", "coordinates": [ -78.714883969691115, 38.906452679862042 ] } },
{ "type": "Feature", "properties": { "id": null, "Name": "Trout Pond and Long Mountain Loop", "Park": "Wardensville Wildlife Management Area", "All_Trails": "https://www.alltrails.com/trail/us/west-virginia/trout-pond-long-loop", "Goolge": "https://maps.app.goo.gl/Esb4LG1pnEWRXETB8", "Difficulty": "Moderate", "Length": "8.2mi", "Elevation": 1387, "Type": null, "All_Trail2": null }, "geometry": { "type": "Point", "coordinates": [ -78.724665338478218, 38.930897482364841 ] } },
{ "type": "Feature", "properties": { "id": null, "Name": "North Mountain, Stack Rock, and Laurel Run Trail Loop", "Park": "George Washington National Forest", "All_Trails": "https://www.alltrails.com/trail/us/west-virginia/north-mountain-stack-rock-and-laurel-run-trail-loop", "Goolge": "https://maps.app.goo.gl/1vuuTopK4SfkpKJD7", "Difficulty": "Hard", "Length": "6.6mi", "Elevation": 1781, "Type": "Hike", "All_Trail2": null }, "geometry": { "type": "Point", "coordinates": [ -78.739249473116701, 38.927463487542155 ] } },
{ "type": "Feature", "properties": { "id": null, "Name": "Laurel Run Trailhead", "Park": "Goshen-Little North Mountain Wildlife Management Area", "All_Trails": "https://www.alltrails.com/trail/us/virginia/laurel-run-trail", "Goolge": "https://maps.app.goo.gl/VT5ehYEmhR5n4w74A", "Difficulty": null, "Length": "3.1mi", "Elevation": 590, "Type": null, "All_Trail2": null }, "geometry": { "type": "Point", "coordinates": [ -78.732891755794412, 38.902929042604214 ] } },
{ "type": "Feature", "properties": { "id": null, "Name": "Orkney Springs Trail", "Park": "George Washington National Forest", "All_Trails": "https://www.alltrails.com/trail/us/virginia/orkney-springs-trail", "Goolge": "https://maps.app.goo.gl/KGEGr6B39osbvF6Z7", "Difficulty": null, "Length": null, "Elevation": null, "Type": null, "All_Trail2": null }, "geometry": { "type": "Point", "coordinates": [ -78.797241233074061, 38.818168672402635 ] } },
{ "type": "Feature", "properties": { "id": null, "Name": "Church Rock", "Park": "George Washington and Jefferson National Forests", "All_Trails": "https://www.alltrails.com/trail/us/virginia/church-rock--2", "Goolge": "https://maps.app.goo.gl/T4Nib7hVxsy4Yo876", "Difficulty": "Moderate", "Length": "7.4mi", "Elevation": 1794, "Type": null, "All_Trail2": null }, "geometry": { "type": "Point", "coordinates": [ -78.869575782652205, 38.724306147249351 ] } },
{ "type": "Feature", "properties": { "id": null, "Name": "Buck Ridge Trail", "Park": "Shenandoah National Park", "All_Trails": "https://www.alltrails.com/trail/us/virginia/buck-ridge-trail", "Goolge": "https://maps.app.goo.gl/GYzYei6CuCwMz7Hp7", "Difficulty": "Moderate", "Length": "5.6mi", "Elevation": 1630, "Type": "Hike", "All_Trail2": null }, "geometry": { "type": "Point", "coordinates": [ -78.281859291222645, 38.658250015916288 ] } },
{ "type": "Feature", "properties": { "id": null, "Name": "Marys Rock via Appalachian Trail North Approach", "Park": "Shenandoah National Park", "All_Trails": "https://www.alltrails.com/trail/us/virginia/marys-rock-via-appalachian-trail-north-approach", "Goolge": "https://maps.app.goo.gl/gQC8EfkbXrkV7NBdA", "Difficulty": "Moderate", "Length": "3.7mi", "Elevation": 1181, "Type": "Hike", "All_Trail2": null }, "geometry": { "type": "Point", "coordinates": [ -78.321522620981781, 38.659277456134319 ] } },
{ "type": "Feature", "properties": { "id": null, "Name": "Pass Mountain Loop", "Park": "Shenandoah National Park", "All_Trails": "https://www.alltrails.com/trail/us/virginia/pass-mountain-loop", "Goolge": "https://maps.app.goo.gl/fmaDVAtAksH5Fd7L8", "Difficulty": "Easy", "Length": "0.3mi", "Elevation": 29, "Type": null, "All_Trail2": null }, "geometry": { "type": "Point", "coordinates": [ -78.334362175921228, 38.675095898148818 ] } },
{ "type": "Feature", "properties": { "id": null, "Name": "Pass Mountain Summit via Appalachian Trail", "Park": "Shenandoah National Park", "All_Trails": "https://www.alltrails.com/trail/us/virginia/pass-mountain-summit-via-appalachian-trail--2", "Goolge": "https://maps.app.goo.gl/86w3QhvRpVwDyQhG6", "Difficulty": "Moderate", "Length": "2.4mi", "Elevation": 567, "Type": null, "All_Trail2": null }, "geometry": { "type": "Point", "coordinates": [ -78.319812519142388, 38.695175803617985 ] } },
{ "type": "Feature", "properties": { "id": null, "Name": "Neighbor Mountain via Neighbor Mountain Trail", "Park": "Shenandoah National Park", "All_Trails": "https://www.alltrails.com/trail/us/virginia/the-neighbor-via-neighbor-mountain-trail", "Goolge": "https://maps.app.goo.gl/dYCpN4wRbZUqFiRDA", "Difficulty": "Moderate", "Length": "4.9mi", "Elevation": 902, "Type": "Hike", "All_Trail2": null }, "geometry": { "type": "Point", "coordinates": [ -78.330790269659872, 38.707505086234363 ] } },
{ "type": "Feature", "properties": { "id": null, "Name": "Thornton River Lower Trail", "Park": "Shenandoah National Park", "All_Trails": "http://alltrails.com/trail/us/virginia/thornton-river-to-neighbor-mountain-to-hull-school-loop", "Goolge": "https://maps.app.goo.gl/sStgZF74tPuY4LQX6", "Difficulty": null, "Length": null, "Elevation": null, "Type": null, "All_Trail2": null }, "geometry": { "type": "Point", "coordinates": [ -78.272770927414825, 38.693217461188993 ] } },
{ "type": "Feature", "properties": { "id": null, "Name": "Appalaichain Trail Access", "Park": "Shenandoah National Park", "All_Trails": null, "Goolge": "https://maps.app.goo.gl/PLH9A7X6MruadSAW9", "Difficulty": null, "Length": null, "Elevation": null, "Type": null, "All_Trail2": null }, "geometry": { "type": "Point", "coordinates": [ -78.320019386300402, 38.723737262564867 ] } },
{ "type": "Feature", "properties": { "id": null, "Name": "Compton West Peak via Appalachian Trail", "Park": "Shenandoah National Park", "All_Trails": "https://www.alltrails.com/trail/us/virginia/compton-peak-via-appalachian-trail", "Goolge": "https://maps.app.goo.gl/hY6NLb6q3hEavdcVA", "Difficulty": "Moderate", "Length": "1.9mi", "Elevation": 561, "Type": "Hike", "All_Trail2": null }, "geometry": { "type": "Point", "coordinates": [ -78.170314795739984, 38.823934232485179 ] } },
{ "type": "Feature", "properties": { "id": null, "Name": "Hogback Spur Trail", "Park": "Shenandoah National Park", "All_Trails": "Shenandoah National Park", "Goolge": "https://maps.app.goo.gl/JsZ31CXby8jPfX7h8", "Difficulty": "Moderate", "Length": "0.6mi", "Elevation": 187, "Type": "Hike", "All_Trail2": null }, "geometry": { "type": "Point", "coordinates": [ -78.272408909888398, 38.758522837127849 ] } },
{ "type": "Feature", "properties": { "id": null, "Name": "Pass Mountain Summit via Appalachian Trail", "Park": "Shenandoah National Park", "All_Trails": null, "Goolge": "https://maps.app.goo.gl/RrXEGRGjxSBAGWhx6", "Difficulty": null, "Length": "2.4mi", "Elevation": 567, "Type": "Hike", "All_Trail2": null }, "geometry": { "type": "Point", "coordinates": [ -78.290543402126019, 38.669001074506468 ] } },
{ "type": "Feature", "properties": { "id": null, "Name": "Meadow Spring Trail", "Park": "Shenandoah National Park", "All_Trails": "https://www.alltrails.com/trail/us/virginia/meadow-springs-trail", "Goolge": "https://maps.app.goo.gl/JwUbfoDA56Jz4JM5A", "Difficulty": "Moderate", "Length": "1.4mi", "Elevation": 488, "Type": "Hike", "All_Trail2": null }, "geometry": { "type": "Point", "coordinates": [ -78.313671150389595, 38.638358876728816 ] } },
{ "type": "Feature", "properties": { "id": null, "Name": "Marys Rock via Pinnacle Picnic Grounds", "Park": "Shenandoah National Park", "All_Trails": "https://www.alltrails.com/trail/us/virginia/marys-rock-via-pinnacle-picnic-grounds", "Goolge": "https://maps.app.goo.gl/gbhPFqjvY5rbzRH59", "Difficulty": "Moderate", "Length": "6.9mi", "Elevation": 1430, "Type": null, "All_Trail2": null }, "geometry": { "type": "Point", "coordinates": [ -78.338629673001449, 38.627425947428904 ] } },
{ "type": "Feature", "properties": { "id": null, "Name": "Leading Ridge Trail", "Park": "Shenandoah National Park", "All_Trails": "https://www.alltrails.com/trail/us/virginia/at-jewell-hollow-leading-ridge-db", "Goolge": "https://maps.app.goo.gl/gbhPFqjvY5rbzRH59", "Difficulty": "Easy", "Length": "2.5mi", "Elevation": 1692, "Type": null, "All_Trail2": null }, "geometry": { "type": "Point", "coordinates": [ -78.342660996742822, 38.623697166906076 ] } },
{ "type": "Feature", "properties": { "id": null, "Name": "Corbin Cabin via Nicholson Hollow and Appalachian Trail Loop", "Park": "Shenandoah National Park", "All_Trails": null, "Goolge": "https://maps.app.goo.gl/sqgRzpEyB2CCWXJX7", "Difficulty": "Moderate", "Length": "4.1mi", "Elevation": 1246, "Type": null, "All_Trail2": "https://www.alltrails.com/trail/us/virginia/corbin-cabin-via-nicholson-hollow-and-appalachian-trail-loop" }, "geometry": { "type": "Point", "coordinates": [ -78.350475403636025, 38.615758639718095 ] } },
{ "type": "Feature", "properties": { "id": null, "Name": "Catlett Mountain Loop via Pinnacles Overlook", "Park": "Shenandoah National Park", "All_Trails": "https://www.alltrails.com/trail/us/virginia/catlett-mountain-loop-via-pinnacles-overlook", "Goolge": "https://maps.app.goo.gl/oHpe7939q5jrDnFU9", "Difficulty": "Moderate", "Length": "8.5mi", "Elevation": 2375, "Type": "Hike", "All_Trail2": null }, "geometry": { "type": "Point", "coordinates": [ -78.322832779649218, 38.622378388773882 ] } },
{ "type": "Feature", "properties": { "id": null, "Name": "Little Stony Man Loop via Appalachian Trail", "Park": "Shenandoah National Park", "All_Trails": "https://www.alltrails.com/trail/us/virginia/little-stony-man-loop-via-appalachian-trail", "Goolge": "https://maps.app.goo.gl/uqcyCJXyG7h7LB9w8", "Difficulty": "Moderate", "Length": "3.4mi", "Elevation": 810, "Type": "Hike", "All_Trail2": null }, "geometry": { "type": "Point", "coordinates": [ -78.375816630490164, 38.593179089423224 ] } },
{ "type": "Feature", "properties": { "id": null, "Name": "Millers Head Trail", "Park": "Shenandoah National Park", "All_Trails": "https://www.alltrails.com/trail/us/virginia/millers-head-trail", "Goolge": "https://maps.app.goo.gl/1BBFCYwcvjMGS7gB7", "Difficulty": "Moderate", "Length": "1.5mi", "Elevation": 354, "Type": null, "All_Trail2": null }, "geometry": { "type": "Point", "coordinates": [ -78.383997455871196, 38.590491740784216 ] } },
{ "type": "Feature", "properties": { "id": null, "Name": "Skyland Stables Trail", "Park": "Shenandoah National Park", "All_Trails": "https://www.alltrails.com/trail/us/virginia/skyland-stables-trail", "Goolge": "https://maps.app.goo.gl/qrxY22kv712qxosi6", "Difficulty": "Moderate", "Length": "1.3mi", "Elevation": 209, "Type": "Hike", "All_Trail2": null }, "geometry": { "type": "Point", "coordinates": [ -78.384203352630507, 38.587570394010797 ] } },
{ "type": "Feature", "properties": { "id": null, "Name": "Limberlost Trail", "Park": "Shenandoah National Park", "All_Trails": "https://www.alltrails.com/trail/us/virginia/limberlost-trail", "Goolge": "https://maps.app.goo.gl/yVPWFSWLW3mtnT4d9", "Difficulty": null, "Length": "1.4mi", "Elevation": 101, "Type": null, "All_Trail2": null }, "geometry": { "type": "Point", "coordinates": [ -78.381147725361885, 38.580122302543529 ] } },
{ "type": "Feature", "properties": { "id": null, "Name": "Cedar Run Trail to Hawksbill to White Oak Trail Loop", "Park": "Shenandoah National Park", "All_Trails": "https://www.alltrails.com/trail/us/virginia/cedar-run-trail-to-hawksbill-to-white-oak-trail-loop", "Goolge": "https://maps.app.goo.gl/ekHwt59tyRp5tiSVA", "Difficulty": "Hard", "Length": "12.8mi", "Elevation": 3487, "Type": "Hike", "All_Trail2": null }, "geometry": { "type": "Point", "coordinates": [ -78.384122346883572, 38.574902376014563 ] } },
{ "type": "Feature", "properties": { "id": null, "Name": "Berry Hollow", "Park": null, "All_Trails": "https://www.alltrails.com/trail/us/virginia/berry-hollow-to-old-rag-mountain-trail--3", "Goolge": "https://maps.app.goo.gl/BgYM6iH4cEwoieeA6", "Difficulty": "Hard", "Length": "5.5mi", "Elevation": 1745, "Type": null, "All_Trail2": null }, "geometry": { "type": "Point", "coordinates": [ -78.338913323208033, 38.548922113939398 ] } },
{ "type": "Feature", "properties": { "id": null, "Name": "Upper Hawksbill Trail", "Park": "Shenandoah National Park", "All_Trails": "https://www.alltrails.com/trail/us/virginia/upper-hawksbill-trail", "Goolge": "https://maps.app.goo.gl/8WSVRDNdsXMmB9688", "Difficulty": "Moderate", "Length": "2.1mi", "Elevation": 498, "Type": null, "All_Trail2": null }, "geometry": { "type": "Point", "coordinates": [ -78.393152098329949, 38.54352062814705 ] } },
{ "type": "Feature", "properties": { "id": null, "Name": "Cedar Run Trail to Hawksbill to White Oak Trail Loop", "Park": "Shenandoah National Park", "All_Trails": "https://www.alltrails.com/trail/us/virginia/cedar-run-trail-to-hawksbill-to-white-oak-trail-loop", "Goolge": "https://maps.app.goo.gl/znguvZQRvZQWUEkk8", "Difficulty": "Hard", "Length": "12.8mi", "Elevation": 3487, "Type": "Hike", "All_Trail2": null }, "geometry": { "type": "Point", "coordinates": [ -78.382994920872505, 38.562676526977192 ] } },
{ "type": "Feature", "properties": { "id": null, "Name": "Hawksbill Summit via Appalachian Trail", "Park": null, "All_Trails": "https://www.alltrails.com/trail/us/virginia/hawksbill-summit-via-appalachian-trail", "Goolge": "https://maps.app.goo.gl/BG7HKx8vHBY3caLi6", "Difficulty": "Moderate", "Length": "4.4mi", "Elevation": 1092, "Type": null, "All_Trail2": null }, "geometry": { "type": "Point", "coordinates": [ -78.413776753981836, 38.548278572780887 ] } },
{ "type": "Feature", "properties": { "id": null, "Name": "Hawksbill Fire Rd", "Park": "Shenandoah National Park", "All_Trails": null, "Goolge": "https://maps.app.goo.gl/Xbz6jETm2pxL6tMFA", "Difficulty": null, "Length": "~1mi", "Elevation": null, "Type": null, "All_Trail2": null }, "geometry": { "type": "Point", "coordinates": [ -78.400299358638591, 38.544981627450369 ] } },
{ "type": "Feature", "properties": { "id": null, "Name": "Rose River Falls", "Park": "Shenandoah National Park", "All_Trails": "https://www.alltrails.com/trail/us/virginia/rose-river-falls", "Goolge": "https://maps.app.goo.gl/gr4SNXaXmfVHmVKa9", "Difficulty": "Moderate", "Length": "2.4mi", "Elevation": 656, "Type": "Hike", "All_Trail2": null }, "geometry": { "type": "Point", "coordinates": [ -78.421110194732677, 38.533335006455374 ] } },
{ "type": "Feature", "properties": { "id": null, "Name": "Hawksbill Mountain, Franklin Cliffs, Big Meadows Horse Trail", "Park": "Shenandoah National Park", "All_Trails": null, "Goolge": null, "Difficulty": null, "Length": null, "Elevation": null, "Type": null, "All_Trail2": "https://www.alltrails.com/trail/us/virginia/hawksbill-mountain-franklin-cliffs-big-meadows-horse-trail" }, "geometry": { "type": "Point", "coordinates": [ -78.422501376370178, 38.534022839755693 ] } },
{ "type": "Feature", "properties": { "id": null, "Name": "Lewis Spring Falls Trail", "Park": "Shenandoah National Park", "All_Trails": "https://www.alltrails.com/trail/us/virginia/lewis-spring-falls-trail", "Goolge": "https://maps.app.goo.gl/https://www.alltrails.com/trail/us/virginia/lewis-spring-falls-trail", "Difficulty": "Moderate", "Length": "2.8mi", "Elevation": 843, "Type": null, "All_Trail2": null }, "geometry": { "type": "Point", "coordinates": [ -78.441533154905542, 38.527672018005319 ] } },
{ "type": "Feature", "properties": { "id": null, "Name": "Appalachian, Rose River, and Lewis Spring Falls Trail Loop", "Park": "Shenandoah National Park", "All_Trails": "https://www.alltrails.com/trail/us/virginia/rose-river-trail-to-lewis-falls-trail-loop", "Goolge": "https://maps.app.goo.gl/uKGQSPcZ233osh5D7", "Difficulty": "Hard", "Length": "8.5mi", "Elevation": 2194, "Type": null, "All_Trail2": null }, "geometry": { "type": "Point", "coordinates": [ -78.436382162671521, 38.530681935154114 ] } },
{ "type": "Feature", "properties": { "id": null, "Name": "Lewis Falls via Lewis Spring", "Park": "Shenandoah National Park", "All_Trails": "https://www.alltrails.com/trail/us/virginia/lewis-falls-via-lewis-spring", "Goolge": "https://maps.app.goo.gl/GPD53YbnF1d2JErk8", "Difficulty": "Moderate", "Length": "1.7mi", "Elevation": 656, "Type": "Hike", "All_Trail2": null }, "geometry": { "type": "Point", "coordinates": [ -78.441846041482009, 38.517039046084484 ] } },
{ "type": "Feature", "properties": { "id": null, "Name": "Dark Hollow Falls Trail", "Park": "Shenandoah National Park", "All_Trails": "https://www.alltrails.com/trail/us/virginia/dark-hollow-falls-trail", "Goolge": "https://maps.app.goo.gl/mEyuhNTgsLhuJwWB6", "Difficulty": "Easy", "Length": "1.6mi", "Elevation": 583, "Type": "Hike", "All_Trail2": null }, "geometry": { "type": "Point", "coordinates": [ -78.431006202403182, 38.519542138696195 ] } },
{ "type": "Feature", "properties": { "id": null, "Name": "Laurel Prong, Rapidan Camp, Jones Mountain Trail via Appalachian Trail", "Park": "Shenandoah National Park", "All_Trails": null, "Goolge": "https://maps.app.goo.gl/eta6jgvcVzZBp7US9", "Difficulty": "Hard", "Length": "7.3mi", "Elevation": null, "Type": null, "All_Trail2": "https://www.alltrails.com/trail/us/virginia/laurel-prong-rapidan-camp-jones-mountain-trail-via-appalachian-trail" }, "geometry": { "type": "Point", "coordinates": [ -78.44566274054695, 38.500375896508174 ] } },
{ "type": "Feature", "properties": { "id": null, "Name": "Rose River and Rapidan Road Loop", "Park": "Shenandoah National Park", "All_Trails": "https://www.alltrails.com/trail/us/virginia/rose-river-and-rapidan-road-loop", "Goolge": "https://maps.app.goo.gl/w3AhGFH6WHWVPJ1f8", "Difficulty": "Hard", "Length": "12mi", "Elevation": 2152, "Type": "Hike", "All_Trail2": null }, "geometry": { "type": "Point", "coordinates": [ -78.366168863409314, 38.51457732690438 ] } },
{ "type": "Feature", "properties": { "id": null, "Name": null, "Park": "Shenandoah National Park", "All_Trails": "https://www.alltrails.com/trail/us/virginia/staunton-river-trail-to-bear-church-rock", "Goolge": "https://maps.app.goo.gl/6K1GDFUYHGtbWRY77", "Difficulty": "Hard", "Length": "8mi", "Elevation": 2170, "Type": "Hike", "All_Trail2": null }, "geometry": { "type": "Point", "coordinates": [ -78.367141139051924, 38.437115919593985 ] } },
{ "type": "Feature", "properties": { "id": null, "Name": "Powell Mountain Trail", "Park": "Shenandoah National Park", "All_Trails": "https://www.alltrails.com/trail/us/virginia/powell-mountain-trail", "Goolge": "https://maps.app.goo.gl/rmWQP6rLQctgYsik7", "Difficulty": "Hard", "Length": "7.2mi", "Elevation": 2316, "Type": null, "All_Trail2": null }, "geometry": { "type": "Point", "coordinates": [ -78.456365530133681, 38.478495815791234 ] } },
{ "type": "Feature", "properties": { "id": null, "Name": "Hazeltop Summit via Appalachian Trail", "Park": null, "All_Trails": "https://www.alltrails.com/trail/us/virginia/hazeltop-summit-via-appalachian-trail", "Goolge": "https://maps.app.goo.gl/MpeeS5yx6cw8Tud3A", "Difficulty": "Moderate", "Length": "2mi", "Elevation": 590, "Type": "Hike", "All_Trail2": null }, "geometry": { "type": "Point", "coordinates": [ -78.457275745628849, 38.468235204754791 ] } },
{ "type": "Feature", "properties": { "id": null, "Name": null, "Park": null, "All_Trails": null, "Goolge": null, "Difficulty": null, "Length": null, "Elevation": null, "Type": null, "All_Trail2": null }, "geometry": { "type": "Point", "coordinates": [ -78.500364881719008, 38.465779950173385 ] } },
{ "type": "Feature", "properties": { "id": null, "Name": "Meadow School Trail", "Park": null, "All_Trails": "https://www.alltrails.com/trail/us/virginia/meadow-school-trail--3", "Goolge": "https://maps.app.goo.gl/dxhJRPE8gzYPM4UDA", "Difficulty": "Moderate", "Length": "3.6mi", "Elevation": 1036, "Type": null, "All_Trail2": null }, "geometry": { "type": "Point", "coordinates": [ -78.466940320666339, 38.452537866222343 ] } },
{ "type": "Feature", "properties": { "id": null, "Name": "Appalachian Trail: Lewis Mountain to Big Meadows", "Park": null, "All_Trails": "https://www.alltrails.com/trail/us/virginia/appalachian-trail-lewis-mountain-to-big-meadows", "Goolge": "https://maps.app.goo.gl/NauYQ42vxtH6wnPi6", "Difficulty": "Hard", "Length": "8.6mi", "Elevation": 1571, "Type": "Hike", "All_Trail2": null }, "geometry": { "type": "Point", "coordinates": [ -78.478312842676985, 38.437529653909984 ] } },
{ "type": "Feature", "properties": { "id": null, "Name": "Devil's Jump Road", "Park": null, "All_Trails": null, "Goolge": null, "Difficulty": null, "Length": null, "Elevation": null, "Type": null, "All_Trail2": null }, "geometry": { "type": "Point", "coordinates": [ -78.469541675178093, 38.447428247419936 ] } },
{ "type": "Feature", "properties": { "id": null, "Name": "Double Top Trail", "Park": "Rapidan Wildlife Management Area", "All_Trails": "https://www.alltrails.com/trail/us/virginia/double-top", "Goolge": "https://maps.app.goo.gl/6ekZ98SFWvZahvB98", "Difficulty": "Moderate", "Length": "4mi", "Elevation": 1223, "Type": "Hike", "All_Trail2": null }, "geometry": { "type": "Point", "coordinates": [ -78.406235153153332, 38.421179390910126 ] } },
{ "type": "Feature", "properties": { "id": null, "Name": null, "Park": null, "All_Trails": null, "Goolge": null, "Difficulty": null, "Length": null, "Elevation": null, "Type": null, "All_Trail2": null }, "geometry": { "type": "Point", "coordinates": [ -78.463467538251436, 38.379153681304011 ] } },
{ "type": "Feature", "properties": { "id": null, "Name": "South River Falls Trail and South River Fire Road Loop", "Park": null, "All_Trails": "https://www.alltrails.com/trail/us/virginia/south-river-falls-trail-and-south-river-fire-road-loop", "Goolge": "https://maps.app.goo.gl/ds9CbqMQfQEFCXA69", "Difficulty": "Moderate", "Length": "3.2mi", "Elevation": 869, "Type": "Hike", "All_Trail2": null }, "geometry": { "type": "Point", "coordinates": [ -78.517200959310017, 38.381379119402098 ] } },
{ "type": "Feature", "properties": { "id": null, "Name": "Saddleback Mountain Loop via Appalachian Trail", "Park": null, "All_Trails": "https://www.alltrails.com/trail/us/virginia/saddleback-mountain-loop-via-appalachian-trail", "Goolge": "https://maps.app.goo.gl/V9fE3hkMchXvWokUA", "Difficulty": "Moderate", "Length": "5.9mi", "Elevation": 1135, "Type": null, "All_Trail2": null }, "geometry": { "type": "Point", "coordinates": [ -78.545182570690642, 38.357659900762322 ] } },
{ "type": "Feature", "properties": { "id": null, "Name": "Hightop Peak Trail", "Park": null, "All_Trails": "https://www.alltrails.com/trail/us/virginia/hightop-peak-trail", "Goolge": "https://maps.app.goo.gl/Ki5FNEmjhMnJwSEs9", "Difficulty": "Moderate", "Length": "3mi", "Elevation": 915, "Type": null, "All_Trail2": null }, "geometry": { "type": "Point", "coordinates": [ -78.553063239720359, 38.345073084695784 ] } },
{ "type": "Feature", "properties": { "id": null, "Name": "Hightop via Appalachian Trail", "Park": null, "All_Trails": "https://www.alltrails.com/trail/us/virginia/hightop-trail--2", "Goolge": "https://maps.app.goo.gl/SwiHwuvzza5tMCAb7", "Difficulty": "Moderate", "Length": "3.6mi", "Elevation": 948, "Type": "Hike", "All_Trail2": null }, "geometry": { "type": "Point", "coordinates": [ -78.574597626022438, 38.32859829736374 ] } },
{ "type": "Feature", "properties": { "id": null, "Name": "Powell Gap to Simmons Gap via Appalachian Trail", "Park": null, "All_Trails": "https://www.alltrails.com/trail/us/virginia/powell-gap-to-simmons-gap-via-appalachian-trail", "Goolge": "https://maps.app.goo.gl/rKaUen2Xjz1m3TvT7", "Difficulty": null, "Length": "6.4mi", "Elevation": 1482, "Type": null, "All_Trail2": null }, "geometry": { "type": "Point", "coordinates": [ -78.592054224280119, 38.321084171079598 ] } },
{ "type": "Feature", "properties": { "id": null, "Name": "Argow Cabin via Eaton Hollow Trail", "Park": null, "All_Trails": "https://www.alltrails.com/trail/us/virginia/argow-cabin-via-eaton-hollow-trail", "Goolge": null, "Difficulty": null, "Length": "1.9mi", "Elevation": 452, "Type": "Hike", "All_Trail2": null }, "geometry": { "type": "Point", "coordinates": [ -78.603691956451939, 38.322334343658227 ] } },
{ "type": "Feature", "properties": { "id": null, "Name": "Rocky Mount and Gap Run Trails", "Park": null, "All_Trails": "https://www.alltrails.com/trail/us/virginia/rocky-mount-and-gap-run-trails", "Goolge": "https://maps.app.goo.gl/PSv3abToZf9dACKL7", "Difficulty": "Hard", "Length": "9.5mi", "Elevation": 2572, "Type": null, "All_Trail2": null }, "geometry": { "type": "Point", "coordinates": [ -78.647199271269599, 38.299196332844275 ] } },
{ "type": "Feature", "properties": { "id": null, "Name": "One Mile Run Trail", "Park": null, "All_Trails": "https://www.alltrails.com/trail/us/virginia/one-mile-run-trail--2", "Goolge": null, "Difficulty": null, "Length": "4.4mi", "Elevation": 1276, "Type": null, "All_Trail2": null }, "geometry": { "type": "Point", "coordinates": [ -78.650681427352467, 38.296682896874678 ] } },
{ "type": "Feature", "properties": { "id": null, "Name": "Appalaichain Trail Access", "Park": null, "All_Trails": null, "Goolge": null, "Difficulty": null, "Length": null, "Elevation": null, "Type": null, "All_Trail2": null }, "geometry": { "type": "Point", "coordinates": [ -78.64196949173909, 38.290988393506041 ] } },
{ "type": "Feature", "properties": { "id": null, "Name": "Rockytop, Austin Mountain, Furnace Mountain, Blackrock", "Park": null, "All_Trails": "https://www.alltrails.com/trail/us/virginia/rockytop-austin-mountain-furnace-mountain-blackrock", "Goolge": "https://maps.app.goo.gl/nSU2Rs1YDwddPjbs5", "Difficulty": "Hard", "Length": "18.8mi", "Elevation": 4370, "Type": null, "All_Trail2": null }, "geometry": { "type": "Point", "coordinates": [ -78.657851919812657, 38.292601836127155 ] } },
{ "type": "Feature", "properties": { "id": null, "Name": "Appalaichain Trail Access", "Park": null, "All_Trails": null, "Goolge": "https://maps.app.goo.gl/hf2bEtPP6an18Bdv6", "Difficulty": null, "Length": null, "Elevation": null, "Type": null, "All_Trail2": null }, "geometry": { "type": "Point", "coordinates": [ -78.658765003973471, 38.284475714366046 ] } },